Site Id,Site Name,Latitude,Longitude,Easting,Northing,Zone,Gauge Zero (Ahd),Site Start Date,Site Cease Date,Drainage Area (Sq.Km),
"201001","OXLEY RIVER AT EUNGELLA","-28.35398611","153.29294722","528708.705","6863548.919","56","13.285","1947/05/21","","213"
"201005","ROUS RIVER AT BOAT HARBOUR NO.3","-28.30956389","153.33588611","532930.415","6868459.114","56","2.757","1957/04/03","","111"
"201012","COBAKI CREEK AT COBAKI","-28.200871","153.458926","545039.08","6880460.566","56","2.457","1982/06/09","","10"
"201015","TWEED RIVER D/S PALMERS ROAD CROSSING","-28.43398056","153.29216111","528610.178","6854687.137","56","29.316","1985/01/24","","156.202"
"201900","TWEED RIVER AT UKI","-28.413522","153.334927","532804.403","6856942.685","56","8.966","1937/08/05","","275"
"202001","BRUNSWICK RIVER AT DURRUMBUL (SHERRYS CROSSING)","-28.531174","153.458183","544827.135","6843868.882","56","13.056","1954/10/21","","34"
"202002","BURRINGBAR CREEK AT BURRINGBAR","-28.43773333","153.47688333","546686","6854202","56","11.74","2006/06/21","","0"
"203002","COOPERS CREEK AT REPENTANCE","-28.641292","153.412585","540323.895","6831685.519","56","42.938","1920/02/11","","62"
"203004","RICHMOND RIVER AT CASINO","-28.86403","153.055427","505405.636","6807077.293","56","5.02","1943/05/26","","1790"
"203005","RICHMOND RIVER AT WIANGAREE","-28.505512","152.967092","496779.627","6846796.979","56","61.44","1943/05/29","","702"
"203010","LEYCESTER RIVER AT ROCK VALLEY","-28.73639722","153.16323611","515939.368","6821207.837","56","13.196","1951/08/23","","179"
"203012","BYRON CREEK AT BINNA BURRA","-28.706611","153.497897","548631.773","6824417.179","56","32.04","1951/08/28","","39"
"203014","WILSONS RIVER AT ELTHAM","-28.755574","153.394827","538546.409","6819030.318","56","6.455","1957/08/22","","223"
"203023","IRONPOT CREEK AT TOONUMBAR","-28.6231","152.7985","480305.6","6833753.4","56","96.194","1967/07/26","","98"
"203024","COOPERS CREEK AT EWING BRIDGE","-28.721535","153.362272","535379.551","6822811.544","56","9.588","1969/05/17","","148"
"203030","MYRTLE CREEK AT RAPPVILLE","-29.11","152.9994","499945.7","6779831.2","56","31.38","1969/05/29","","332"
"203034","EDEN CREEK AT DOUBTFUL","-28.756906","152.924017","492582.01","6818944.276","56","27.037","1970/12/18","","581"
"203041","SHANNON BROOK AT YORKLEA","-28.9403","153.0061918","500603.427","6798628.6","56","13.133","1972/05/24","","492"
"203042","IRONPOT CREEK AT TOONUMBAR DAM-STORAGE GAUGE","-28.6185","152.7936","479821.4","6834260.4","56","0.001","1971/07/12","","98"
"203056","RICHMOND RIVER AT LAVELLES ROAD","-28.450382","152.891551","489381.68","6852900.092","56","88.824","2006/06/20","","0"
"203057","HOUGHLAHANS CREEK AT UPSTREAM TEVEN","-28.801169","153.494846","548289.758","6813944.038","56","6.125","2010/11/03","","0"
"203059","MAROM CREEK AT GRAHAM ROAD","-28.874925","153.36741","535828.836","6805816.031","56","7.63","2011/08/02","","0"
"203060","COOPERS CREEK AT FAIRMEADOW","-28.74601111","153.35183056","534343","6820104","56","6.77","2011/08/02","","0"
"203061","GOOLMANGAR CREEK AT MCNAMARA BRIDGE WEIR","-28.733144","153.225572","522026.921","6821558.324","56","9.36","2011/08/02","","0"
"203062","WILSONS RIVER AT LAVERTYS GAP WEIR","-28.576278","153.438248","542858.469","6838879.283","56","116.029","2016/03/08","","0"
"203403","RICHMOND RIVER AT CORAKI","-28.99","153.2896","528205.1","6793087.4","56","27.74","1987/12/01","","4325"
"203470","RICHMOND RV @ OAKLAND ROAD","-29.00708967","153.2739095","526677","6791198","56","","2010/06/10","",""
"203900","RICHMOND RIVER AT KYOGLE","-28.621042","152.994844","499495.985","6833998.503","56","40.251","1969/05/27","","899"
"204001","NYMBOIDA RIVER AT NYMBOIDA","-29.978146","152.725685","473466.9","6683473.7","56","182.88","1908/12/20","","1660"
"204002","CLARENCE RIVER AT TABULAM","-28.8868","152.5675","457828.499","6804478.989","56","112.299","1909/05/01","","4550"
"204004","MANN RIVER AT JACKADGERY","-29.571397976","152.544854807","455914.654","6728619.279","56","92.105","1919/05/21","","7800"
"204006","BOOKOOKOORARA RIVER AT UNDERCLIFFE","-28.64463","152.16947","418829.755","6831103.279","56","28.315","1921/09/03","","127"
"204007","CLARENCE RIVER AT LILYDALE (NEWBOLD CROSSING)","-29.507339212","152.6834251","469317.318","6735761.679","56","9.992","1922/03/28","","16690"
"204008","GUY FAWKES RIVER AT EBOR","-30.4037","152.3469","437264.1","6636297.1","56","1278.284","1923/11/26","","31"
"204014","MANN RIVER AT MITCHELL","-29.6931","152.106","413505.5","6714888","56","378.028","1945/10/10","","881"
"204015","BOYD RIVER AT BROADMEADOWS","-29.8394","152.3171","434031.3","6698819","56","239.147","1945/10/11","","2670"
"204017","BIELSDOWN CREEK AT DORRIGO NO.2 & NO.3","-30.304993707","152.714557374","472554.237","6647383.604","56","628.133","1947/02/11","","76"
"204025","ORARA RIVER AT KARANGI","-30.2528","153.0333","503207.4","6653204.8","56","98.864","1925/05/20","","135"
"204033","TIMBARRA RIVER AT BILLYRIMBA","-29.1928","152.2512","427201.589","6770421.47","56","330.386","1951/11/23","","985"
"204034","HENRY RIVER AT NEWTON BOYD","-29.761282","152.214472","424055.756","6707407.64","56","314.717","1951/10/25","","389"
"204036","CATARACT CREEK AT SANDY HILL(BELOW SNAKE CREEK)","-28.9325","152.2182","423805.6","6799237.6","56","562.335","1952/03/14","","236"
"204037","CLOUDS CREEK AT CLOUDS CREEK","-30.092071015","152.62930228","464278.8","6670938.3","56","581.975","1952/06/27","","62"
"204039","MARYLAND RIVER D/S WYLIE CREEK","-28.46634","152.19876","421577.7","6850862.3","56","469.806","1953/09/30","","373"
"204041","ORARA RIVER AT BAWDEN BRIDGE","-29.721692","152.809934","481617.623","6712037.674","56","1.86","1955/06/16","","1790"
"204043","PEACOCK CREEK AT BONALBO","-28.7329","152.6747","468236.5","6821562.4","56","182.256","1960/03/25","","47"
"204046","TIMBARRA RIVER AT DRAKE","-29.05473","152.38605","440232.23","6785795.24","56","211.852","1969/07/08","","1720"
"204051","CLARENCE RIVER AT PADDYS FLAT","-28.71982","152.41982","443338.269","6822917.437","56","168.883","1970/06/17","","2230"
"204055","SPORTSMANS CREEK AT GURRANANG SIDING","-29.465214138","152.982721736","498324.689","6740470.742","56","3.417","1972/02/28","","202"
"204056","DANDAHRA CREEK AT GIBRALTAR RANGE","-29.484832","152.446839","446375.067","6738169.809","56","22.555","1972/05/10","","104"
"204067","GORDON BROOK AT FINEFLOWER","-29.40164371","152.653911487","466428.5","6747484.3","56","49.504","1983/04/22","","315"
"204068","ORARA RIVER AT ORANGE GROVE","-30.257631","153.011285","501085.59","6652666.444","56","105.734","1995/08/07","","126"
"204069","NYMBOIDA RIVER D/S NYMBOIDA WEIR","-29.921557","152.686131","469704.205","6689865.336","56","171.523","1997/09/17","","1732"
"204071","BIELSDOWN RIVER AT CHARLESTEAD","-30.233893","152.710842","472165.1","6655248.1","56","502.876","2003/05/21","","131"
"204072","NYMBOIDA TAILRACE AT POWER STATION RIGHT BANK FLUME","-29.925728527","152.741884026","475086.752","6689416.499","56","109.62","1999/08/18","","0"
"204073","NYMBOIDA TAILRACE AT POWER STATION LEFT BANK FLUME","-29.925728527","152.741884026","475086.752","6689416.499","56","109.6","1999/08/18","","0"
"204400","CLARENCE RIVER AT GRAFTON","-29.69362829","152.93175728","493398","6715149","56","0","2009/12/04","","0"
"204403","COLDSTREAM RIVER AT TUCABIA","-29.666582","153.105249","510184.787","6718154.512","56","0","2001/08/14","","0"
"204413","CLARENCE RIVER AT ROGANS BRIDGE","-29.61912085","152.88444882","488813","6723401","56","0","2009/12/03","","0"
"204900","CLARENCE RIVER AT BARYULGIL","-29.196113","152.593194","460451.97","6770217.952","56","72.089","1971/07/15","","7490"
"204906","ORARA RIVER AT GLENREAGH","-30.067556","152.98529","498582.216","6673728.779","56","53.1","1972/11/15","","446"
"205002","BELLINGER RIVER AT THORA","-30.426775691","152.779625951","478836.941","6633902.306","56","24.84","1955/06/22","","433"
"205015","NAMBUCCA RIVER (NORTH ARM) U/S BOWRAVILLE","-30.6288","152.8496","485589.9","6611521.2","56","4.95","2006/06/01","","250"
"205016","BELLINGER RIVER AT FOSTERS","-30.4417","152.8852","488977","6632262.1","56","0.751","2007/07/31","","642"
"205018","SOUTH CREEK AT BOWRAVILLE","-30.648383","152.846001","485233","6609374","56","2.82","2011/07/15","","0"
"205019","NEVER NEVER CREEK AT OLD CROSSING","-30.38361","152.889596","489392.979","6638701.153","56","28.67","2006/09/06","","0"
"206001","STYX RIVER AT JEOGLA","-30.5885","152.1634","419789.4","6615703.5","56","808.457","1918/04/29","","163"
"206024","MACLEAY RIVER AT D/S GEORGES RIVER JUNCTION","-30.7517","152.2054","423949.6","6597646.8","56","122.153","1969/06/29","","7930"
