STATION,STNAME,SHORTNAME,GAUGE,DATUM,CATCHAREA,ZONE,EASTING,NORTHING,GRDATUM,LATITUDE,LONGITUDE,LLDATUM,POSACC,ELEV,ELEVACC,FIELD,LAB,ACTIVE,COMMENCED,CEASED,REGION
221201,CANN RIVER (WEST BRANCH) @ WEERAGUA,CANN (WB) @ WEERAGUA,153.956,AHD,311.00000,55,694682.000,5861473.000,UTM,-37.372935590,149.198660600,WGS84,9,169.000,1,Y,Y,1,1922-04-22,NULL,221
221202,GENOA RIVER @ WANGARABELL,GENOA @ WANGARABELL,.000,NULL,780.00000,55,720154.845,5859838.207,MGA94,-37.382091000,149.486607000,GDA94,1,.000,1,N,N,1,1922-01-01,1974-01-23 00:00:00.000,221
221207,ERRINUNDRA RIVER @ ERRINUNDRA,ERRINUNDRA @ ERRINUN,.000,GAU,162.00000,55,669418.000,5853798.000,UTM,-37.447037190,148.915255600,WGS84,9,168.000,1,n,n,1,1968-02-20,NULL,221
221208,WINGAN RIVER @ WINGAN INLET NATIONAL PARK,WINGAN @WINGAN INLET,.000,ARB,420.00000,55,719710.300,5825779.500,UTM,-37.688768000,149.491767270,WGS84,9,50.000,1,Y,Y,1,1979-06-22,NULL,221
221209,CANN RIVER (EAST BRANCH) @ WEERAGUA,CANN (EBR) WEERAGUA,.000,NULL,154.00000,55,695470.000,5863398.000,UTM,-37.355431110,149.207045800,WGS84,9,202.000,1,Y,N,1,1972-10-23,NULL,221
221210,GENOA RIVER @ THE GORGE,GENOA @ GORGE,.000,NULL,837.00000,55,723046.000,5856007.000,UTM,-37.415770780,149.520375700,WGS84,9,102.000,1,Y,Y,1,1972-08-22,NULL,221
221211,COMBIENBAR RIVER @ COMBIENBAR,COMBIENBAR @ COMB.,.000,GAU,179.00000,55,675439.000,5854433.000,UTM,-37.440194490,148.983134800,WGS84,9,189.000,1,Y,Y,1,1974-08-12,NULL,221
221212,BEMM RIVER @ PRINCES HIGHWAY,BEMM @ PRINCES HWY,.000,NULL,725.00000,55,667855.000,5836059.000,UTM,-37.607126190,148.901648700,WGS84,9,82.000,1,Y,Y,1,1975-04-30,NULL,221
221218,BETKA RIVER @ MINERS TRACK,BETKA R @ MINERS TRK,.000,ARB,.00000,55,732688.000,5835801.000,UTM,-37.595335240,149.635618190,WGS84,1,.000,1,N,N,1,1996-01-16,NULL,221
221224,CANN RIVER U/S CANN RIVER OFFTAKE,CANN RV U/S O/TAKE,.000,NULL,.00000,55,690544.000,5843171.000,UTM,-37.538646840,149.156689000,WGS84,NULL,.000,NULL,y,N,1,2009-03-11,NULL,221
221225,BEMM RIVER U/S OF PUMPHOUSE,BEMM R U/S PUMPHOUSE,.000,NULL,.00000,55,671929.000,5822377.000,UTM,-37.729623050,148.951004300,WGS84,NULL,.000,NULL,N,N,1,2009-09-23,NULL,221
221801,Raingauge @ Buldah,RG @ Buldah,NULL,NULL,NULL,55,690262.675,5873543.064,MGA94,-37.265260000,149.145700000,GDA94,NULL,.000,NULL,N,N,1,NULL,NULL,221
221802,Raingauge @ Club Terrace,RG @ Club Terrace,NULL,NULL,NULL,55,671155.600,5842019.921,MGA94,-37.552950000,148.937640000,GDA94,NULL,.000,NULL,N,N,1,NULL,NULL,221
221803,RG @ Bemm Fire Tower- Bemm Tower Rd Club Terrace,RG @ Bemm Fire Tower,NULL,NULL,NULL,55,674610.860,5831503.109,NULL,-37.646908000,148.979234000,0,9,.000,NULL,N,N,1,2020-10-01,NULL,221
221804,RG @ Waldron Fire Tower -Waldron Rd Combienbar,RG @ Waldron FT,NULL,NULL,NULL,55,683377.147,5854086.101,NULL,-37.441780000,149.072900000,0,9,.000,NULL,N,N,1,2020-10-01,NULL,221
222200,SNOWY RIVER @ JARRAHMOND,SNOWY R @ JARRAHMOND,.000,AHD,13421.00000,55,620071.000,5830901.000,UTM,-37.661086070,148.361313900,WGS84,9,27.000,1,Y,Y,1,1889-04-01,NULL,222
222201,SNOWY RIVER @ ORBOST,SNOWY R @ ORBOST,-.141,AHD,13572.00000,55,627898.000,5825644.400,UTM,-37.707393070,148.450950330,WGS84,9,7.000,1,Y,Y,1,1907-04-13,NULL,222
222202,BRODRIBB RIVER @ SARDINE CREEK,BRODRIBB @ SARDINE,78.591,AHD,658.00000,55,636752.000,5847240.000,UTM,-37.511534490,148.547325400,WGS84,9,103.000,1,Y,N,1,1922-04-24,NULL,222
222203,SNOWY RIVER @ MARLO JETTY,SNOWY @ MARLO JETTY,-.745,AHD,.00000,55,634504.800,5815384.500,NULL,-37.798888890,148.527777800,NULL,1,.000,1,N,N,1,1934-06-25,NULL,222
222205,SNOWY RIVER @ NEWMERELLA-LOCHEND ROAD,SNOWY @ NEWMERELLA,-.479,ARB,13600.00000,55,633887.775,5820634.951,MGA94,-37.751804000,148.519811000,GDA94,1,.000,1,N,N,1,1960-03-01,NULL,222
222206,BUCHAN RIVER @ BUCHAN,BUCHAN @ BUCHAN,74.850,AHD,822.00000,55,603711.000,5849459.000,UTM,-37.495843240,148.173242400,WGS84,9,90.000,9,Y,Y,1,1926-03-27,NULL,222
222209,SNOWY RIVER @ MCKILLOP BRIDGE,SNOWY @ MCKILLOP BR.,.000,ARB,10619.00000,55,625612.000,5894902.000,UTM,-37.083627560,148.413255100,WGS84,9,174.000,9,Y,Y,1,1941-03-01,NULL,222
222210,DEDDICK RIVER @ DEDDICK (CASEYS),DEDDICK @ DEDDICK,.000,ARB,857.00000,55,626577.700,5894693.700,UTM,-37.085374700,148.424152230,WGS84,9,.000,1,Y,N,1,1964-03-26,NULL,222
222213,SUGGAN BUGGAN RIVER @ SUGGAN BUGGAN,S.BUGGAN @ SUGGAN,.000,ARB,357.00000,55,618048.000,5909278.000,UTM,-36.955055360,148.325920800,WGS84,9,.000,1,Y,N,1,1957-07-24,NULL,222
222217,RODGER RIVER @ JACKSONS CROSSING,RODGER @ JACKSONS,.000,ARB,447.00000,55,620346.000,5858744.000,UTM,-37.410156040,148.359866600,WGS84,9,.000,1,Y,Y,1,1976-06-03,NULL,222
222219,SNOWY RIVER @ D/S OF BASIN CREEK,SNOWY @ BASIN CRK,.000,ARB,11964.00000,55,612580.000,5848984.000,UTM,-37.499084730,148.273624800,WGS84,9,.000,1,Y,Y,1,1978-12-12,NULL,222
222221,BUCHAN RIVER @ EGW OFFTAKE,BUCHAN R @ EGW O/T,.000,NULL,.00000,55,603874.000,5852271.000,UTM,-37.470483850,148.174689100,WGS84,NULL,.000,NULL,y,N,1,2009-05-14,NULL,222
222222,ROCKY RIVER U/S OT THE WEIR,ROCKY RIVER U/S OT T,.000,NULL,.00000,55,645938.000,5834053.000,UTM,-37.628939220,148.653850800,WGS84,NULL,.000,NULL,y,N,1,2009-03-11,NULL,222
222223,Brodribb River @ U/S Lake Curlip,Brodribb R @ Lk Curl,NULL,NULL,NULL,55,635984.236,5823374.335,NULL,-37.726682000,148.543080000,NULL,9,.000,NULL,y,N,1,2020-04-01,NULL,222
223202,TAMBO RIVER @ SWIFTS CREEK,TAMBO @ SWIFTS CREEK,280.863,AHD,943.00000,55,564619.000,5875047.000,UTM,-37.268781200,147.728818550,WGS84,9,305.000,1,Y,Y,1,1937-06-01,NULL,223
223204,NICHOLSON RIVER @ DEPTFORD,NICHOLSON @ DEPTFORD,.000,ARB,287.00000,55,561543.000,5839104.000,UTM,-37.592946310,147.697124000,WGS84,9,.000,1,Y,Y,1,1961-05-12,NULL,223
223205,TAMBO RIVER @ D/S OF RAMROD CREEK,TAMBO @ DS RAMROD,15.452,AHD,2681.00000,55,576710.000,5830147.000,UTM,-37.672530620,147.869851300,WGS84,9,.000,1,Y,N,1,1965-06-09,NULL,223
223208,TAMBO RIVER @ BINDI (NEAR JUNCTION CREEK),TAMBO R @ BINDI,.000,ARB,523.00000,55,568710.000,5887104.000,ANG,-37.159815170,147.773843500,AGD66,1,380.000,1,N,N,1,1974-03-21,2003-07-14 00:00:00.000,223
223209,TAMBO RIVER @ BATTENS LANDING,TAMBO @ BATTENS,.000,ARB,2781.00000,55,574796.100,5820757.900,UTM,-37.757306200,147.849116070,WGS84,9,.000,1,Y,N,1,1977-01-26,NULL,223
223210,NICHOLSON RIVER @ SARSFIELD,NICHOLSON @ SARSFIEL,.000,ARB,471.00000,55,562646.000,5823050.000,UTM,-37.737561550,147.710996200,WGS84,9,42.000,1,Y,Y,1,1977-09-21,NULL,223
223212,TIMBARRA RIVER @ D/S OF WILKINSON CREEK,TIMBARRA DS WILKINSO,.000,ARB,438.00000,55,594066.000,5855069.000,UTM,-37.446318430,148.063433700,WGS84,9,200.000,1,Y,N,1,1982-05-06,NULL,223
223214,TAMBO RIVER @ U/S OF SMITH CREEK,TAMBO @ U/S SMITH CK,.000,ARB,32.00000,55,582588.000,5909736.000,UTM,-36.954706560,147.927640000,WGS84,9,950.000,1,Y,Y,1,1989-03-02,NULL,223
223215,HAUNTED STREAM @ HELLS GATE,HAUNTED @ HELLS,153.892,AHD,180.00000,55,573015.000,5851389.000,UTM,-37.481387050,147.825838850,WGS84,9,169.000,1,Y,N,1,1990-02-08,NULL,223
223217,NICHOLSON RIVER @ PUMP HOUSE,NICHOLSON R @ PUMP H,.000,AHD,.00000,55,564088.000,5821594.000,UTM,-37.750583950,147.727489300,GDA94,NULL,.000,NULL,y,N,1,2011-01-20,NULL,223
223218,Nicholson River @ Granite Rock,Nicholson R @ GR,NULL,NULL,NULL,55,561277.445,5824164.128,NULL,-37.727613000,147.695371000,NULL,GPS,.000,NULL,N,N,1,NULL,NULL,223
223802,RAINGAUGE @ MOUNT ELIZABETH SOMMERVILLE TRACK,RG MT ELIZABETH TRK,NULL,NULL,NULL,55,580733.000,5851999.000,UTM,-37.475247030,147.913057000,GDA94,NULL,.000,NULL,N,N,1,2011-01-19,NULL,223
223804,RG @ Brookville,RG # Brookville,NULL,NULL,NULL,55,555011.596,5869165.586,NULL,-37.322410000,147.620900000,NULL,NULL,.000,NULL,Y,N,1,2021-03-26,NULL,223
224200,MITCHELL RIVER @ BAIRNSDALE,MITCHELL @ BAIRNS,.000,ARB,4425.00000,55,552241.000,5813267.000,UTM,-37.826386090,147.593616540,WGS84,9,.000,1,Y,N,1,1889-04-01,NULL,224
224201,WONNANGATTA RIVER @ WATERFORD,WATERFORD,175.337,AHD,1979.00000,55,514714.000,5850745.000,UTM,-37.489960860,147.166443700,WGS84,9,183.000,9,n,N,1,1922-03-24,NULL,224
224203,MITCHELL RIVER @ GLENALADALE,MITCHELL GLENALADALE,28.951,AHD,3903.00000,55,533010.000,5820334.000,UTM,-37.763589910,147.374777600,WGS84,9,.000,1,Y,Y,1,1937-08-07,NULL,224
224206,WONNANGATTA RIVER @ CROOKED RIVER,WONNANGATTA @CROOKED,240.829,AHD,1096.00000,55,507891.000,5859903.000,UTM,-37.407496900,147.089164520,WGS84,9,.000,1,Y,Y,1,1953-05-07,NULL,224
224213,DARGO RIVER @ LOWER DARGO ROAD,DARGO @ L DARGO RD,172.824,AHD,676.00000,55,523752.000,5850152.000,UTM,-37.495117620,147.268699200,WGS84,9,.000,1,Y,Y,1,1973-05-24,NULL,224
224214,WENTWORTH RIVER @ TABBERABBERA,WENTWORTH @TABBERA'A,.000,ARB,443.00000,55,534808.000,5850099.000,UTM,-37.495244660,147.393772700,WGS84,9,.000,1,Y,N,1,1974-07-04,NULL,224
224217,MITCHELL RIVER @ ROSEHILL,MITCHELL @ ROSEHILL,.000,ARB,4413.00000,55,550366.000,5814542.000,UTM,-37.815000360,147.572223120,WGS84,9,27.000,1,Y,Y,1,1976-10-29,NULL,224
224220,RAIN GAUGE (BOGGY CREEK) @ BULLUMWAAL,RG @ BULLUMWAAL,178.885,AHD,83.00000,55,548565.500,5830013.300,UTM,-37.675657580,147.550733730,WGS84,9,.000,1,n,N,1,1991-02-26,NULL,224
224222,MITCHELL RIVER U/S GLENALADALE PUMPHOUSE,MITCHELL R GLENA. PS,.000,ARB,.00000,55,532443.000,5823351.000,UTM,-37.736550000,147.368200000,WGS84,NULL,.000,NULL,y,N,1,2009-12-18,NULL,224
224601,Macleod Morass - Site 2 Western Bank,Macleod Site 2 WB,NULL,NULL,NULL,55,556389.907,5808742.151,NULL,-37.866919440,147.641111110,NULL,NULL,.000,NULL,N,N,1,NULL,NULL,224
224602,Macleod Morass - Site 1 Regulator,Macleod Site 1 Reg,NULL,NULL,NULL,55,556120.470,5810682.965,NULL,-37.849444440,147.637897220,NULL,NULL,.000,NULL,N,N,1,2021-05-25,NULL,224
225114,THOMSON RIVER @ D/S WHITELAWS CREEK,THOMSON R WHITELAWS,.000,NULL,155.30000,55,436711.000,5825795.000,UTM,-37.712777770,146.281945600,WGS84,9,.000,1,N,Y,1,1987-03-27,NULL,225
225201,AVON RIVER @ STRATFORD,AVON @ STRATFORD,6.479,AHD,1485.00000,55,506676.000,5797653.000,UTM,-37.968586800,147.076006100,WGS84,9,12.000,9,Y,Y,1,1976-11-01,NULL,225
225209,MACALISTER RIVER @ LICOLA,MACALISTER @ LICOLA,2.000,AHD,1233.00000,55,466762.000,5835198.000,UTM,-37.629610370,146.623312300,WGS84,9,.000,1,Y,Y,1,1952-08-01,NULL,225
225210,THOMSON RIVER @ THE NARROWS,THOMSON @ NARROWS,247.080,AHD,518.00000,55,447491.263,5806094.894,UTM,-37.891010000,146.402820000,WGS84,9,.000,1,N,Y,1,1953-06-11,NULL,225
225212,THOMSON RIVER @ WANDOCKA,THOMSON @ WANDOCKA,19.423,AHD,1417.00000,55,489554.000,5792978.000,UTM,-38.010686380,146.881004600,WGS84,9,.000,1,Y,Y,1,1963-03-29,NULL,225
225213,ABERFELDY RIVER @ BEARDMORE,ABERFELDY @BEARDMORE,305.552,AHD,311.00000,55,450135.000,5810238.000,UTM,-37.853818450,146.433171900,WGS84,9,336.000,1,Y,Y,1,1963-06-27,NULL,225
225218,FREESTONE CREEK @ BRIAGALONG,FREESTONE CREEK,63.238,AHD,309.00000,55,508366.400,5815232.800,NULL,-37.810125600,147.095047300,NULL,NULL,78.000,1,Y,Y,1,1967-04-12,NULL,225
225219,MACALISTER RIVER @ GLENCAIRN,MACALISTER @ GLEN,293.540,AHD,570.00000,55,461689.000,5847757.000,UTM,-37.516215230,146.566477900,WGS84,9,.000,1,Y,N,1,1967-04-07,NULL,225
225221,MACALISTER RIVER @ STRINGYBARK CREEK,MACALISTER @ STRINGY,105.249,AHD,1542.00000,55,470738.000,5819709.000,UTM,-37.769350730,146.667749300,WGS84,9,.000,1,n,n,1,1968-03-18,2018-09-03 00:00:00.000,225
225223,VALENCIA CREEK @ GILLIO ROAD,VALENCIA @ GILLIO RD,85.481,AHD,195.00000,55,499321.000,5822633.000,UTM,-37.743464130,146.992293100,WGS84,9,99.000,1,Y,Y,1,1971-09-06,NULL,225
225224,AVON RIVER @ THE CHANNEL,AVON @ CHANNEL,72.000,AHD,554.00000,55,489868.000,5816150.000,UTM,-37.801840850,146.884907300,WGS84,9,96.000,1,Y,Y,1,1972-07-12,NULL,225
225231,THOMSON RIVER @ U/S OF COWWARR WEIR,THOM. @U/S COWWARR W,69.400,AHD,1080.00000,55,467065.000,5796878.000,UTM,-37.974998640,146.625003980,WGS84,9,.000,1,Y,Y,1,1976-04-01,NULL,225
225232,THOMSON RIVER @ BUNDALAGUAH,THOMSON @ BUNDALAGUA,5.094,AHD,3538.00000,55,499308.000,5789148.000,UTM,-38.045265440,146.992113400,WGS84,9,20.000,9,Y,Y,1,1976-11-03,NULL,225
225234,AVON RIVER @ CLYDEBANK (CHINN'S BRIDGE),AVON R @ CHINN'S BR,-.210,ARB,1584.00000,55,515238.000,5791515.000,UTM,-38.023804200,147.173614300,WGS84,9,5.000,9,Y,Y,1,1977-05-05,NULL,225
225247,MACALISTER RIVER @ RIVERSLEA,MACALISTER RIVERSLEA,.000,GAU,.00000,55,498044.500,5791335.700,MGA94,-38.025678250,146.977719340,GDA94,1,19.000,1,Y,Y,1,1996-12-16,NULL,225
225801,RAIN GAUGE (MACALISTER RIVER) @ MURDERERS HILL,RG @ MURDERERS HILL,.000,NULL,.00000,55,460964.000,5810725.000,UTM,-37.849957390,146.556290300,WGS84,9,738.000,1,Y,N,1,1970-06-08,NULL,225
225802,RAIN GAUGE (MACALISTER RIVER) @ MOUNT TAMBORITHA,RG @ MT. TAMBORITHA,.000,NULL,.00000,55,472550.000,5853466.000,UTM,-37.465144220,146.689590500,WGS84,9,1380.000,1,Y,N,1,1986-04-01,NULL,225
225809,RAIN GAUGE (AVON RIVER) @ MOUNT WELLINGTON,RG @ MT WELLINGTON,.000,NULL,.00000,55,487412.000,5850069.000,UTM,-37.496085500,146.857593800,WGS84,9,1544.000,1,Y,N,1,1997-05-21,NULL,225
225810,RAIN GAUGE (AVON RIVER) @ REEVE KNOB,RG @ REEVE KNOB,.000,NULL,.00000,55,500533.200,5846182.000,UTM,-37.531207090,147.006034840,WGS84,9,1265.000,1,Y,N,1,1997-05-21,NULL,225
225819,RAINGAUGE @ MT USEFUL,R.G. @ MT USEFUL,.000,NULL,.00000,55,456353.000,5827872.000,UTM,-37.695204400,146.504911900,WGS84,9,.000,0,n,N,1,2002-05-27,NULL,225
225823,RAINGAUGE @ BLANKET HILL,R.G. BLANKET HILL,NULL,NULL,NULL,55,472533.600,5811892.100,UTM,-37.839860000,146.687840000,GDA94,NULL,.000,NULL,N,N,1,2010-07-26,NULL,225
225824,RAINGAUGE (MACALISTER RV) @ SNOWY RANGE,RG AT SNOWY RANGE,NULL,NULL,NULL,55,475045.000,5873295.000,AMG66,-37.286482000,146.718472900,AGD66,9,1638.000,1,N,N,1,2011-02-22,NULL,225
225825,RAINGAUGE (MACALISTER RV) @ HIGH RIDGE,RG AT HIGH RIDGE,NULL,NULL,NULL,55,464837.103,5880051.102,UTM,-37.225254000,146.603635000,AGD66,9,1587.000,1,N,N,1,2011-04-06,NULL,225
225826,RAINGAUGE (MACALISTER RV) @ MOUNT SUNDAY,RG AT MT SUNDAY,NULL,NULL,NULL,55,448995.000,5867264.000,MGA94,-37.339908030,146.424185200,GDA94,NULL,.000,NULL,N,N,1,2011-04-06,NULL,225
226005,LATROBE RIVER @ THOMS BRIDGE,LATROBE @ THOMS,.000,ARB,2657.00000,55,448290.419,5775501.723,UTM,-38.166772000,146.409700000,WGS84,9,.000,1,Y,N,1,1960-05-24,NULL,226
226007,TYERS RIVER @ BROWNS,TYERS @ BROWNS,169.359,AHD,207.00000,55,443476.000,5788600.000,UTM,-38.048439510,146.355780700,WGS84,9,.000,1,Y,Y,1,1961-08-17,NULL,226
226008,TYERS RIVER WEST BRANCH @ MORGANS MILL,TYERS @ MORGANS MILL,.000,NULL,80.00000,55,439256.000,5800120.000,UTM,-37.944345390,146.308662600,WGS84,9,.000,1,Y,Y,1,1960-04-27,NULL,226
226017,JACOBS CREEK @ O'TOOLES,JACOBS @ O'TOOLES,.000,NULL,36.00000,55,446350.000,5788246.000,UTM,-38.051804800,146.388508200,WGS84,9,.000,1,Y,Y,1,1962-04-16,NULL,226
226021,NARRACAN CREEK @ MOE,NARRACAN CK @ MOE,.000,ARB,.00000,55,435969.000,5775832.000,UTM,-38.163004390,146.269081900,WGS84,9,.000,1,Y,N,1,1996-06-26,NULL,226
226023,TRARALGON CREEK @ TRARALGON,TRARALGON CK,32.673,AHD,189.00000,55,460064.000,5772541.000,UTM,-38.194053590,146.543932600,WGS84,9,32.673,1,Y,N,1,1960-10-13,NULL,226
226027,LA TROBE RIVER @ SWING BRIDGE,LA TROBE RV SWING BR,.000,AHD,.00000,55,511200.000,5778084.000,AMG84,-38.144912922,147.127817965,WGS84,NULL,.000,NULL,N,N,1,2010-05-07,NULL,226
226028,TYERS R @ PUMP HOUSE,TYERS R @ PUMP HOUSE,.000,NULL,.00000,55,451503.000,5778560.000,UTM,-38.139388770,146.446580500,WGS84,9,.000,1,N,Y,1,1990-04-12,NULL,226
226041,LAKE WELLINGTON @ BULL BAY,LAKE WELLINGTON,.000,AHD,.00000,55,532876.000,5780415.000,UTM,-38.123375200,147.375080600,WGS84,9,.000,1,Y,N,1,1975-03-19,NULL,226
226204,LATROBE RIVER @ WILLOW GROVE,LATROBE @ WILLOW GVE,.000,ARB,580.00000,55,426308.000,5784017.000,UTM,-38.088505520,146.159657200,WGS84,9,80.000,9,Y,Y,1,1924-10-23,NULL,226
226205,LATROBE RIVER @ NOOJEE,LATROBE @ NOOJEE,.000,ARB,290.00000,55,414035.000,5804037.000,UTM,-37.907010170,146.022118800,WGS84,9,238.000,9,Y,N,1,1925-05-13,NULL,226
226207,Hazel Creek @ Warragul WWTP,Hazel Ck @ WWTP,NULL,NULL,NULL,55,408508.902,5775295.991,NULL,-38.165465500,145.955595000,,NULL,.000,NULL,N,N,1,2021-07-01,NULL,226
226208,Hazel Creek @ D/S Warragul WWTP,Hazel Ck D/S WWTP,NULL,NULL,NULL,55,409110.582,5775254.085,NULL,-38.165904000,145.962457000,0,9,.000,NULL,N,N,1,2021-07-01,NULL,226
226209,MOE RIVER @ DARNUM,MOE R @ DARNUM,79.598,AHD,225.00000,55,412633.000,5770880.000,UTM,-38.205668150,146.002123600,WGS84,9,91.000,9,Y,Y,1,1949-09-12,NULL,226
226211,Moe River @ Rhodes Rd, Warragul,Moe R @ Rhodes Rd,NULL,NULL,NULL,55,411259.058,5773769.387,NULL,-38.179497000,145.986794000,0,9,.000,NULL,N,N,1,2021-07-01,NULL,226
226216,TANJIL RIVER @ TANJIL SOUTH,TANJIL @TANJIL SOUTH,69.245,AHD,358.00000,55,433560.000,5783395.000,UTM,-38.094673190,146.242290100,WGS84,9,81.000,9,Y,Y,1,1955-04-05,NULL,226
226218,NARRACAN CREEK @ THORPDALE,NARRACAN @ THORPDALE,.000,ARB,66.00000,55,428843.000,5763687.000,UTM,-38.271916180,146.186527700,WGS84,9,224.000,1,Y,N,1,1955-06-22,NULL,226
226220,LOCH RIVER @ NOOJEE,LOCH RIVER,.000,ARB,106.00000,55,412644.000,5808497.000,UTM,-37.866685540,146.006837920,WGS84,9,262.000,9,Y,N,1,1957-03-06,NULL,226
226222,LATROBE RIVER @ NEAR NOOJEE (US ADA R JUNCT.),LATROBE U/S ADA R,272.304,AHD,62.00000,55,402650.000,5806658.000,UTM,-37.882244300,145.892985300,WGS84,9,310.000,9,Y,Y,1,1971-05-10,NULL,226
226224,LATROBE RIVER @ ROSEDALE (ANABRANCH),LATROBE @ ROSEDALE,9.700,AHD,4144.00000,55,481555.000,5777709.000,UTM,-38.148173570,146.789490500,WGS84,9,.000,1,Y,N,1,1936-12-01,NULL,226
226226,TANJIL RIVER @ TANJIL JUNCTION,TANJIL @ TANJIL JUNC,.000,ARB,289.00000,55,429155.000,5796100.000,UTM,-37.979842170,146.193315000,WGS84,9,200.000,9,Y,Y,1,1960-05-25,NULL,226
226227,LATROBE RIVER @ KILMANY SOUTH,LATROBE @ KILMANY S.,2.571,AHD,4464.00000,55,492900.000,5778721.000,UTM,-38.139213470,146.918978800,WGS84,9,.000,1,Y,Y,1,1976-12-16,NULL,226
226228,LATROBE RIVER @ ROSEDALE (MAIN STREAM),LATROBE @ ROSEDALE,9.700,AHD,4144.00000,55,481748.000,5778351.000,UTM,-38.142391420,146.791709600,WGS84,9,.000,1,Y,Y,1,1936-12-01,NULL,226
226235,TYERS RIVER @ TYERS JUNCTION,TYERS R @ TYERS JUC,.000,ARB,132.20000,55,441506.000,5798197.000,UTM,-37.961823770,146.334112200,WGS84,9,.000,0,Y,Y,1,2001-10-05,NULL,226
226253,TRIGGER CREEK @ GIPPSLAND WATER SYPHON,TRIGGER CK GW SYPHON,NULL,NULL,NULL,55,444493.060,5804752.899,MGA94,-37.903058330,146.368616670,GDA94,NULL,.000,NULL,y,N,1,2016-05-30,NULL,226
226402,MOE DRAIN @ TRAFALGAR EAST,MOE @ TRAFALGAR,.000,GAU,622.00000,55,431070.000,5774351.000,UTM,-38.175989460,146.213020700,WGS84,9,57.000,9,Y,Y,1,1957-06-07,NULL,226
226406,LITTLE MORWELL ROVER @ BOOLARRA,LTL MORWELL@BOOLARRA,NULL,NULL,NULL,55,434351.510,5751184.856,NULL,-38.385000000,146.248333333,NULL,NULL,.000,NULL,N,N,1,1961-08-30,1986-12-16 00:00:00.000,226
226407,MORWELL RIVER @ BOOLARRA,MORWELL @ BOOLARRA,98.302,AHD,114.00000,55,439351.000,5748787.000,UTM,-38.406961560,146.305366100,WGS84,9,.000,1,Y,N,1,1958-10-06,NULL,226
226408,MORWELL R @ YALLOURN,MORWELL R YALLOURN,.000,ARB,622.00000,55,444702.000,5770110.400,UTM,-38.215146000,146.368318000,WGS84,9,47.000,9,N,Y,1,1943-02-09,NULL,226
226410,TRARALGON CREEK @ KOORNALLA,TRARALGON @ KOORNALL,.000,ARB,89.00000,55,459050.000,5758231.000,UTM,-38.322972180,146.531525800,WGS84,9,94.000,1,Y,N,1,1953-07-09,NULL,226
226415,TRARALGON CREEK @ TRARALGON SOUTH (JONES RD),TRARALGON C JONES RD,60.000,AHD,128.00000,55,459805.000,5764127.000,UTM,-38.269870900,146.540498100,WGS84,9,68.000,1,Y,N,1,1974-06-04,NULL,226
226418,Morwell River @ Creamery Road,Morwell R@ Creamery,NULL,NULL,NULL,55,440519.573,5758107.460,NULL,-38.323047220,146.319536110,GDA94,NULL,.000,NULL,N,N,1,2021-09-03,NULL,226
226602,AREA 2 SITE1 @ DOWDS MORASS NTH,DOWDS MORASS AREA2,-.016,AHD,.00000,55,516003.730,5777730.390,UTM,-38.148027419,147.182647389,WGS84,9,.000,0,N,N,1,2003-06-17,NULL,226
226605,LAKE VICTORIA @ MCLENNAN'S STRAIT,L VICTORIA MCLENNANS,.000,AHD,.00000,55,540395.663,5788012.275,UTM,-38.054600000,147.460440000,WGS84,NULL,.000,NULL,N,N,1,2010-11-17,NULL,226
226606,LAKE VICTORIA @ LOCH SPORT,L VICTORIA LOCHSPORT,.000,NULL,.00000,55,551177.000,5789006.000,UTM,-38.045098670,147.583252100,GDA94,NULL,.000,NULL,N,N,1,2010-11-26,NULL,226
226607,MCMILLAN STRAIT @ PAYNESVILLE,MCMILLAN STRAIT PAYN,.000,AHD,.00000,55,564019.000,5803744.200,UTM,-37.911590000,147.728290000,GDA94,NULL,.000,NULL,N,N,1,2010-10-21,NULL,226
226608,LAKE KING @ METUNG,LK KING AT METUNG,.000,AHD,.00000,55,576509.000,5807127.800,MGA94,-37.880000000,147.870000000,WGS84,NULL,.000,NULL,N,N,1,2010-11-17,NULL,226
226609,CUNNINGHAM ARM @ BULLOCK ISLAND,C'GHAM @ BULLOCK ISL,-1.000,AHD,.00000,55,585591.000,5806582.200,UTM,-37.884240000,147.973330000,GDA94,NULL,.000,NULL,N,N,1,2010-10-19,NULL,226
226611,HEART MORASS @ RICKETY BRIDGE,HEART MORASS RICKETY,NULL,NULL,NULL,55,515736.240,5779439.300,AMG84,-38.132630390,147.179556845,AGD84,9,.000,NULL,N,N,1,2017-02-21,NULL,226
226814,RAIN GAUGE @ MT TASSIE,R.G. MT TASSIE,.000,NULL,.00000,55,461784.000,5750077.000,UTM,-38.396577200,146.562360100,WGS84,9,.000,0,Y,N,1,1998-05-04,NULL,226
226815,RAIN GAUGE (TRARALGON CK) @ TRARALGON - EPA YARD,R.G.TRARALGON,.000,NULL,.00000,55,458982.000,5772514.000,UTM,-38.194248280,146.531575000,WGS84,9,.000,0,Y,N,1,1999-05-25,NULL,226
226818,RAIN GAUGE @ BALOOK,R.G. BALOOK,.000,NULL,.00000,55,459952.000,5746341.000,UTM,-38.430165620,146.541168200,WGS84,9,.000,0,Y,N,1,1999-06-10,NULL,226
226820,Raingauge @ Traralgon South,RG @ Traralgon Sth,NULL,NULL,NULL,55,459959.842,5761386.122,NULL,-38.294579000,146.542113000,NULL,NULL,.000,NULL,y,N,1,2020-07-20,NULL,226
226825,RAINGAUGE @ MOE SOUTH,RG AT MOE STH,NULL,NULL,NULL,55,434231.700,5769648.900,AMG66,-38.218600000,146.248680000,AGD66,NULL,.000,NULL,N,N,1,2009-10-06,NULL,226
226826,RAINGAUGE @ YARRAGON SOUTH,RG AT YARRAGON SOUTH,NULL,NULL,NULL,55,420511.000,5763367.100,UTM,-38.274100000,146.091250000,WGS84,NULL,382.000,NULL,N,N,1,2009-10-21,NULL,226
226827,RAINGAUGE @ THORPDALE PEAK,RG AT THORPDALE PK,NULL,NULL,NULL,55,431275.000,5760002.400,AMG66,-38.305310000,146.213970000,AGD66,NULL,364.000,NULL,N,N,1,2009-09-17,NULL,226
226829,RAINGAUGE @ JERRALANG DOBBINS ROAD,RG @ JERRALANG DOBBI,NULL,NULL,NULL,55,450883.600,5754699.500,MGA94,-38.354520520,146.437855760,GDA94,NULL,510.000,NULL,N,N,1,2013-01-29,NULL,226
227200,TARRA RIVER @ YARRAM,TARRA @ YARRAM,.000,ARB,218.00000,55,472361.771,5732988.992,UTM,-38.550964000,146.682818000,WGS84,9,35.000,1,Y,Y,1,1946-03-01,NULL,227
227202,TARWIN RIVER @ MEENIYAN,TARWIN @ MEENIYAN,.000,ARB,1067.00000,55,412165.000,5729150.000,UTM,-38.581646210,145.991569300,WGS84,9,25.000,9,Y,Y,1,1955-06-22,NULL,227
227205,MERRIMAN CREEK @ CALIGNEE SOUTH,MERRIMAN @ CALLIGNEE,172.448,AHD,36.00000,55,469833.000,5755048.000,UTM,-38.352085810,146.654746400,WGS84,9,200.000,1,Y,N,1,1946-12-06,NULL,227
227210,BRUTHEN CREEK @ CARRAJUNG LOWER,BRUTHEN @ CARRAJUNG,.000,AHD,18.00000,55,477651.000,5750309.000,UTM,-38.395023950,146.744070000,WGS84,9,159.000,1,Y,N,1,1952-09-05,NULL,227
227211,AGNES RIVER @ TOORA,AGNES @ TOORA,.000,ARB,67.00000,55,445387.000,5722973.000,UTM,-38.639974300,146.372477600,WGS84,9,142.000,9,Y,Y,1,1952-09-05,NULL,227
227213,JACK RIVER @ JACK RIVER,JACK R @ JACK R,.000,ARB,34.00000,55,459739.000,5735728.000,UTM,-38.525798690,146.538118000,WGS84,9,70.000,1,Y,N,1,1960-10-01,NULL,227
227219,BASS RIVER @ LOCH,BASS @ LOCH,.000,ARB,52.00000,55,388609.000,5753722.000,UTM,-38.357612630,145.725084100,WGS84,9,98.000,9,Y,N,1,1966-04-01,NULL,227
227225,TARRA RIVER @ FISCHERS,TARRA R @ FISCHERS,.000,ARB,16.00000,55,461190.000,5741983.000,UTM,-38.469494170,146.555110600,WGS84,9,195.000,1,Y,N,1,1968-04-24,NULL,227
227226,TARWIN RIVER EAST BRANCH @ DUMBALK NORTH,TARWIN @ DUMBALK N.,.000,ARB,127.00000,55,426838.000,5738399.000,UTM,-38.499633020,146.160979900,WGS84,9,58.000,9,Y,N,1,1969-01-08,NULL,227
227227,WILKUR CREEK @ LEONGATHA,WILKUR @ LEONGATHA,.000,ARB,106.00000,55,408948.000,5750056.000,UTM,-38.392946200,145.957358700,WGS84,9,75.000,9,Y,N,1,1970-07-30,NULL,227
227231,BASS RIVER @ GLEN FORBES SOUTH,BASS @ GLEN FORBES S,.000,ARB,233.00000,55,370463.000,5741320.000,UTM,-38.466903010,145.515170300,WGS84,9,20.000,9,Y,Y,1,1973-03-30,NULL,227
227232,LANCE CREEK U/S LANCE CREEK RESERVOIR,LANCE CK U/S L. RES.,.000,NULL,14.00000,55,383783.000,5738738.000,UTM,-38.492001580,145.667383300,WGS84,9,.000,1,N,Y,1,1974-08-05,NULL,227
227236,POWLETT RIVER @ D/S FOSTER CREEK JUNCTION,POWLETT @ D/S FOSTER,.000,ARB,228.00000,55,387508.000,5731353.000,UTM,-38.559016850,145.708897800,WGS84,9,36.000,9,Y,Y,1,1979-05-18,NULL,227
227237,FRANKLIN RIVER @ TOORA,FRANKLIN @ TOORA,.000,ARB,75.00000,55,439771.000,5724088.000,UTM,-38.629562870,146.308048600,WGS84,9,64.000,9,Y,Y,1,1979-06-08,NULL,227
227239,MERRIMAN CREEK @ STRADBROKE WEST,MERRIMAN @ STRADBROK,71.868,AHD,256.00000,55,492658.000,5764652.000,UTM,-38.266009050,146.916071800,WGS84,9,93.000,1,Y,N,1,1983-11-18,NULL,227
227242,MERRIMAN CREEK @ SEASPRAY TOWNSHIP,MERRIMAN @ SEASPRAY,.000,AHD,8.00000,55,516203.000,5752529.000,UTM,-38.375149340,147.185498200,WGS84,9,4.000,1,Y,N,1,1984-05-11,NULL,227
227244,DEEP CREEK @ FOSTER,DEEP CK @ FOSTER,.000,ARB,.00000,55,432312.000,5725707.000,UTM,-38.614435780,146.222519010,WGS84,9,.000,1,Y,N,1,1993-04-29,NULL,227
227245,LITTLE BASS RIVER @ POOWONG U/S LITTLE BASS RES.,LT. BASS RV POOWONG,.000,ARB,.00000,55,395053.800,5753559.500,UTM,-38.359855600,145.798807880,WGS84,9,.000,1,Y,N,1,1999-05-18,NULL,227
227246,COALITION CREEK,KORUMBURRA GOLF COUR,.000,NULL,.00000,55,396827.000,5748087.400,UTM,-38.409367000,145.818297000,WGS84,1,.000,1,N,N,1,2004-06-08,NULL,227
227248,BELLVIEW CREEK U/S BELLVIEW RESERVOIR,BELLVIEW CK,.000,NULL,.00000,55,396367.000,5749105.000,AMG84,-38.400145190,145.813179800,NULL,1,15.000,1,Y,Y,1,1999-05-18,NULL,227
227249,RUBY CREEK @ ARAWATA,RUBY CREEK ARAWATA,.000,ARB,.00000,55,402379.000,5748848.000,AMG84,-38.403137770,145.881981900,GDA94,1,.000,1,Y,N,1,1999-05-18,NULL,227
227251,TARRA RIVER @ TARRA WEIR OFFTAKE,TARRA R @ WEIR O/T,.000,NULL,.00000,55,463301.000,5741305.000,UTM,-38.475693630,146.579273400,WGS84,9,138.000,9,Y,Y,1,2004-10-27,NULL,227
227253,TARWIN R D/S FISH CK DRAIN,TARWIN RV D/S FISH C,.000,NULL,.00000,55,402377.500,5716499.900,UTM,-38.694604000,145.877442000,WGS84,9,4.000,9,N,Y,1,2001-11-08,NULL,227
227254,POWLETT R D/S WONTHAGGI,POWLETT RV WONTHAGGI,.000,NULL,.00000,55,374664.100,5730305.900,UTM,-38.566732000,145.561338000,WGS84,9,5.000,9,N,Y,1,2004-01-15,NULL,227
227258,ALBERT RIVER @ GELLIONDALE,ALBERT RV GELLIONDA,.000,NULL,.00000,55,462717.000,5730240.000,UTM,-38.575385040,146.571988210,WGS84,9,.000,1,N,Y,1,2006-05-30,NULL,227
227262,TARRA RIVER @ TARRAVILLE (BREWERY CK ROAD),TARRA R @ TARRAVILLE,.000,NULL,.00000,55,474170.000,5726447.000,UTM,-38.609973860,146.703326900,WGS84,9,.000,1,N,Y,1,2006-07-17,NULL,227
227264,COALITION CREEK @ LEONGATHA (SPENCERS ROAD BRIDGE),COALITION @ SPENCERS,.000,ARB,.00000,55,409001.000,5743754.000,UTM,-38.449737180,145.957149340,WGS84,9,163.000,9,Y,N,1,2006-11-28,NULL,227
227266,TARWIN RIVER @ KOONWARRA,TARWIN R KOONWARRA,.000,NULL,.00000,55,408996.000,5735402.000,UTM,-38.524993360,145.956006710,WGS84,1,.000,1,Y,N,1,2008-09-22,NULL,227
227270,FOSTER CREEK @ KORUMBURRA,FOSTER CK KORUMBURRA,NULL,NULL,NULL,55,394617.600,5745540.000,MGA94,-38.432195440,145.792608300,GDA94,NULL,.000,NULL,N,N,1,2011-10-13,NULL,227
227271,STONY CREEK @ MEENIYAN,STONY CK @ MEENYAN,NULL,NULL,NULL,55,416259.696,5726805.756,MGA94,-38.603299000,146.038287000,GDA94,NULL,.000,NULL,N,N,1,2017-04-13,NULL,227
227272,MERRIMAN CREEK @ SEASPRAY PUMP STATION,MERRIMAN CK PUMP STN,NULL,NULL,NULL,55,514431.900,5754732.400,MGA94,-38.355455560,147.165177780,GDA94,NULL,.000,NULL,y,Y,1,2013-09-25,NULL,227
227273,POWLETT RIVER AT MOUTH OF POWLETT ROAD,POWLETT RV AT MOUTH,NULL,NULL,NULL,55,370252.500,5729481.600,MGA94,-38.573658610,145.510553300,GDA94,NULL,.000,NULL,N,N,1,2016-11-03,NULL,227
227275,Stony Creek @ Meeniyan-Promontory Road,Stony Ck @ Meen_Prom,NULL,NULL,NULL,55,414554.053,5726975.044,MGA94,-38.601611000,146.018722000,GDA94,NOT,.000,NULL,N,N,1,2121-09-16,NULL,227
228215,King Parrot Creek @ D/S Drouin WWTP,King Parrot ck WWTP,NULL,NULL,NULL,55,397289.896,5778643.199,,-38.134096000,145.828032000,WGS84,9,.000,9,Y,N,1,2021-06-29,NULL,228
228272,KANANOOK CREEK AT WELLS STREET FRANKSTON,DAKAN0098,NULL,NULL,NULL,55,335272.000,5776544.000,MGA94,-38.143900000,145.120000000,GDA94,NULL,.000,NULL,N,N,1,1994-01-01,NULL,228
228273,MONBULK CREEK OFF KAROO ROAD,DAMON0031,NULL,NULL,NULL,55,346796.500,5803426.700,MGA94,-37.903800000,145.257000000,GDA94,NULL,.000,NULL,N,N,1,2007-01-01,NULL,228
228274,PATTERSON RIVER AT NATIONAL WATER SPORTS CNTR BANGHOLME,DAPAT0573,NULL,NULL,NULL,55,337362.000,5786174.000,MGA94,-38.057600000,145.146000000,GDA94,NULL,.000,NULL,N,N,1,1994-01-01,NULL,228
228275,KACKERABOITE CREEK UPSTREAM OLD MORNINGTON ROAD,WPKAC0007,NULL,NULL,NULL,55,333590.000,5773971.500,MGA94,-38.166800000,145.100000000,GDA94,NULL,.000,NULL,N,N,1,2007-01-01,NULL,228
228276,KING PARROT CREEK UPSTREAM KOO WEE RUP LONGWARRY ROAD,WPKIN0070,NULL,NULL,NULL,55,387635.300,5773997.300,MGA94,-38.174900000,145.717000000,GDA94,NULL,.000,NULL,N,N,1,2007-01-01,NULL,228
228277,LABERTOUCHE CREEK OFF LABERTOUCHE JACKSONS TRACK,WPLAB0036,NULL,NULL,NULL,55,394464.200,5785646.500,MGA94,-38.070800000,145.797000000,GDA94,NULL,.000,NULL,N,N,1,2007-01-01,NULL,228
228278,LOWER GUM SCRUB CREEK AT WENN ROAD,WPLGS0036,NULL,NULL,NULL,55,363956.000,5776610.000,MGA94,-38.148100000,145.447000000,GDA94,NULL,.000,NULL,N,N,1,2007-01-01,NULL,228
228279,MINNIEBURN CREEK AT SOUTH ROAD,WPMIN0035,NULL,NULL,NULL,55,398058.200,5767540.200,MGA94,-38.234400000,145.835000000,GDA94,NULL,.000,NULL,N,N,1,2007-01-01,NULL,228
228280,MUSK CREEK UPSTREAM KOO WEE RUP LONGWARRY ROAD,WPMUS0051,NULL,NULL,NULL,55,387043.200,5772575.100,MGA94,-38.187700000,145.710000000,GDA94,NULL,.000,NULL,N,N,1,2007-01-01,NULL,228
228281,OLIVERS CREEK AT BAYVIEW ROAD,WPOLI0014,NULL,NULL,NULL,55,342224.100,5760635.500,MGA94,-38.288500000,145.196000000,GDA94,NULL,.000,NULL,N,N,1,2007-01-01,NULL,228
228282,SWEETWATER CREEK AT GRANGE ROAD,WPSWE0007,NULL,NULL,NULL,55,334463.300,5774761.900,MGA94,-38.159900000,145.111000000,GDA94,NULL,.000,NULL,N,N,1,2007-01-01,NULL,228
228283,WYLIES DRAIN AT BAXTER-TOORADIN ROAD,WPWYL0023,NULL,NULL,NULL,55,354501.300,5771170.500,MGA94,-38.195700000,145.338000000,GDA94,NULL,.000,NULL,N,N,1,2007-01-01,NULL,228
228284,MCDONALDS DRAIN AT BALLARTO ROAD,WPMCD0115,NULL,NULL,NULL,55,368873.100,5775787.500,MGA94,-38.156300000,145.503000000,GDA94,NULL,.000,NULL,N,N,1,2007-01-01,NULL,228
228285,ARARAT CREEK AT NAR NAR GOO LONGWARRY ROAD,WPARA0063,NULL,NULL,NULL,55,376610.100,5784015.300,MGA94,-38.083200000,145.593000000,GDA94,NULL,.000,NULL,N,N,1,2007-01-01,NULL,228
228286,DIAMOND CREEK AT ELLIS ROAD,WPDIA0074,NULL,NULL,NULL,55,389562.000,5792003.700,MGA94,-38.012900000,145.742000000,GDA94,NULL,.000,NULL,N,N,1,2007-01-01,NULL,228
228386,BALCOMBE CREEK AT NEPEAN HIGHWAY MOUNT MARTHA,BALCOMBE-MT MARTHA,NULL,NULL,NULL,55,328271.500,5763052.500,MGA94,-38.264200000,145.037000000,GDA94,NULL,4.370,NULL,N,N,1,1993-01-07,NULL,228
228388,EUMMEMERING CREEK AT WORSLEY ROAD BANGHOLME,EUMM'NG-BANGHOLM,NULL,NULL,NULL,55,340284.500,5788105.400,MGA94,-38.040700000,145.180000000,GDA94,NULL,7.080,NULL,N,N,1,1994-01-27,NULL,228
228398,FERNY CREEK UPSTREAM MONBULK CREEK KNOXFIELD,DAFER0021,NULL,NULL,NULL,55,346314.200,5803473.500,MGA94,-37.903300000,145.252000000,GDA94,NULL,.000,NULL,N,N,1,2007-01-01,NULL,228
228604,CROYDON MAIN DRAIN AT BANGALOOK ROAD WALKWAY WEST-EAST,DACRO0028,NULL,NULL,NULL,55,346773.100,5811114.000,MGA94,-37.834500000,145.259000000,GDA94,NULL,.000,NULL,N,N,1,2007-01-01,NULL,228
229146,STRINGYBARK CREEK AT YARRA GLEN ROAD COLDSTREAM,S'BARK @ COLDSTREAM,NULL,NULL,NULL,55,357400.000,5826800.000,MGA94,-37.694900000,145.383000000,GDA94,NULL,.000,NULL,N,N,1,1973-10-18,NULL,229
229289,LITTLE YARRA RIVER AT CORDUROY ROAD,LITTLE YARRA,NULL,NULL,NULL,55,377072.000,5817984.000,MGA94,-37.777200000,145.604000000,GDA94,NULL,.000,NULL,N,N,1,1998-01-01,NULL,229
229294,BIG PATS CREEK AT SMALL TRACK OFF MISSISSIPI CREEK ROAD,YABPA0063,NULL,NULL,NULL,55,389179.139,5820855.733,MGA94,-37.752900000,145.742000000,GDA94,NULL,.000,NULL,N,N,1,2020-04-03,NULL,229
229295,BRUCES CREEK AT BEECH STREET,YABRC0076,NULL,NULL,NULL,55,334074.600,5846764.800,MGA94,-37.511200000,145.123000000,GDA94,NULL,.000,NULL,N,N,1,2007-01-01,NULL,229
229296,CORANDERRK CREEK AT HEALESVILLE-KOO WEE RUP ROAD,YACOR0033,NULL,NULL,NULL,55,369407.600,5827662.000,MGA94,-37.689000000,145.519000000,GDA94,NULL,.000,NULL,N,N,1,2007-01-01,NULL,229
229297,EDGARS CREEK AT MURRAY ROAD,YAEDG0039,NULL,NULL,NULL,55,321674.100,5821800.100,MGA94,-37.733700000,144.976000000,GDA94,NULL,.000,NULL,N,N,1,2007-01-01,NULL,229
229298,MCMAHONS CREEK AT WOODS POINT ROAD,YAMCM0059,NULL,NULL,NULL,55,396958.300,5826674.600,MGA94,-37.701400000,145.831000000,GDA94,NULL,.000,NULL,N,N,1,2007-01-01,NULL,229
229299,NEW CHUM CREEK AT ROAD 11 OFF MYERS CREEK ROAD,YANEW0050,NULL,NULL,NULL,55,369351.100,5833771.900,MGA94,-37.633900000,145.519000000,GDA94,NULL,.000,NULL,N,N,1,2007-01-01,NULL,229
229416,OLINDA CREEK UPSTREAM HULL ROAD,YAOLI0037,NULL,NULL,NULL,55,355701.000,5817544.200,MGA94,-37.778100000,145.361000000,GDA94,NULL,.000,NULL,N,N,1,2007-01-01,NULL,229
229417,SCOTCHMAN CREEK AT GOLFERS DRIVE,YASCO0018,NULL,NULL,NULL,55,331022.800,5806195.000,MGA94,-37.876100000,145.079000000,GDA94,NULL,.000,NULL,N,N,1,2007-01-01,NULL,229
229418,STARVATION CREEK UPSTREAM WOODS POINT ROAD,YASTA0047,NULL,NULL,NULL,55,394258.100,5825112.300,MGA94,-37.715100000,145.800000000,GDA94,NULL,.000,NULL,N,N,1,2007-01-01,NULL,229
229419,YARRA RIVER AT SPADONIS RESERVE COLDSTREAM,YAYAR2151,NULL,NULL,NULL,55,354512.000,5828284.000,MGA94,-37.681100000,145.350000000,GDA94,NULL,.000,NULL,N,N,1,1994-01-01,NULL,229
229420,YARRA RIVER AT PRINCES BRIDGE,YAYAR3884,NULL,NULL,NULL,55,321168.000,5812297.000,MGA94,-37.819200000,144.968000000,GDA94,NULL,.000,NULL,N,N,1,1994-01-01,NULL,229
229421,O'SHANNASSY RIVER UPSTREAM CONFLUENCE WITH YARRA,YAOSH0127,NULL,NULL,NULL,55,392907.300,5825898.500,MGA94,-37.707900000,145.785000000,GDA94,NULL,.000,NULL,N,N,1,2007-01-01,NULL,229
229601,DIAMOND CREEK AT MAIN ROAD ELTHAM,DIAMOND @ ELTHAM,NULL,NULL,NULL,55,336300.000,5822300.000,MGA94,-37.732000000,145.142000000,GDA94,NULL,.000,NULL,N,N,1,1973-05-23,NULL,229
229671,WOORI YALLOCK CREEK UPSTREAM WARBURTON HIGHWAY,WYC-WARBURTON HWY,NULL,NULL,NULL,55,368700.000,5817900.000,MGA94,-37.776800000,145.509000000,GDA94,NULL,.000,NULL,N,N,1,1989-08-31,NULL,229
229677,SHEPHERD CREEK D/S HEALESVILLE KOOWEERUP RD NANGANA,SHEPHERD CK-NANGANA,NULL,NULL,NULL,55,370788.700,5807980.100,MGA94,-37.866500000,145.531000000,GDA94,NULL,.000,NULL,N,N,1,1993-05-20,NULL,229
230200,MARIBYRNONG RIVER @ KEILOR,MARIBYRNONG @ KEILOR,10.625,AHD,1303.00000,55,309336.000,5822178.000,UTM,-37.727706090,144.836476100,WGS84,9,29.000,9,Y,N,1,1907-05-20,NULL,230
230202,JACKSON CREEK @ SUNBURY,JACKSON CK @ SUNBURY,182.080,AHD,337.00000,55,300626.000,5838015.000,UTM,-37.583217370,144.742035640,WGS84,9,.000,1,Y,N,1,1908-02-01,NULL,230
230204,RIDDELLS CREEK @ RIDDELLS CREEK,RIDDELLS @ RIDELLS,357.213,AHD,79.00000,55,294125.000,5851007.000,UTM,-37.464778760,144.672105400,WGS84,9,.000,1,Y,N,1,1933-09-14,NULL,230
230205,DEEP CREEK @ BULLA (D/S OF EMU CREEK JUNCT.),DEEP @ BULLA,82.826,AHD,865.00000,55,305956.000,5832795.000,UTM,-37.631372000,144.800973700,WGS84,9,99.000,9,Y,Y,1,1955-06-21,NULL,230
230206,JACKSON CREEK @ GISBORNE,JACKSON @ GISBORNE,418.772,AHD,96.00000,55,285340.000,5849609.000,UTM,-37.475370480,144.572443200,WGS84,9,433.000,1,Y,N,1,1960-05-09,NULL,230
230209,BARRINGO CREEK @ BARRINGO (U/S OF DIVERSION),BARRINGO CREEK,.000,ARB,6.00000,55,289900.000,5856928.000,UTM,-37.410503870,144.626055100,WGS84,9,.000,1,Y,Y,1,1966-06-16,NULL,230
230210,SALTWATER CREEK @ BULLENGAROOK,SALTWATER @ BULLEN.,463.540,AHD,39.00000,55,281073.000,5849889.000,UTM,-37.471848020,144.524312400,WGS84,9,469.000,9,Y,N,1,1968-05-08,NULL,230
230213,TURRITABLE CREEK @ MOUNT MACEDON,TURRITABLE @ MACEDON,457.898,AHD,15.00000,55,286273.000,5855903.000,UTM,-37.418904970,144.584809600,WGS84,9,.000,1,Y,N,1,1970-08-24,NULL,230
230217,GARDEN HUT CREEK @ U/S OF LANCEFIELD RESERVIOR,GARDEN @ US LANCE.,NULL,NULL,NULL,55,290800.000,5867700.000,AMG66,-37.313693170,144.639259100,AGD66,NULL,.000,NULL,y,N,1,1977-07-20,NULL,230
230218,BOLINDA CREEK @ MOUNT ELIZA,BOLINDA @ MT. ELIZA,NULL,NULL,NULL,55,295016.300,5861182.400,AMG66,-37.373333330,144.685000000,AGD66,1,.000,NULL,y,N,1,1991-11-12,NULL,230
230220,JACKSON CREEK @ CLARKFIELD,JACKSON CK CLARKF'LD,NULL,NULL,NULL,55,300131.400,5848280.900,MGA94,-37.490780000,144.739220000,GDA94,9,.000,NULL,y,N,1,2004-02-18,NULL,230
230227,MAIN CREEK @ KERRIE,MAIN CK @ KERRIE,NULL,NULL,NULL,55,292900.000,5858600.000,AMG66,-37.396121060,144.660394900,AGD66,NULL,.000,NULL,Y,N,1,1989-12-04,NULL,230
230231,WILLIMIGONGON CK @ MT MACEDON-ANZAC RD,WILLIMIGONGON CK,NULL,NULL,NULL,55,286986.400,5858152.500,MGA94,-37.398940000,144.593500000,GDA94,1,.000,NULL,Y,N,1,1992-03-23,NULL,230
230232,DEEP CREEK @ BOLINDA,DEEP CK @ BOLINDA,.000,ARB,315.00000,55,306826.000,5855493.000,UTM,-37.427114150,144.816796100,WGS84,9,.000,1,Y,Y,1,1993-02-24,NULL,230
230233,JACKSON CREEK @ GISBORNE TREATMENT PLANT,JACKSON CK TREAT.PL.,NULL,NULL,NULL,55,289235.500,5848322.800,MGA94,-37.487980560,144.616080600,GDA94,NULL,.000,NULL,y,N,1,1993-03-24,NULL,230
230239,STONEY CREEK U/S ORD HILL RESERVOIR,STONEY C ORD HILL RE,NULL,NULL,NULL,55,287666.400,5859697.800,MGA94,-37.385180000,144.601620000,GDA94,NULL,.000,NULL,y,N,1,2002-04-30,NULL,230
230240,JACKSON CREEK @ SALESIAN COLLEGE SUNBURY,JACKSON CK SALESIAN,NULL,NULL,NULL,55,300140.000,5839340.000,ANG,-37.571178420,144.736896900,AGD66,NULL,.000,NULL,y,N,1,2004-02-13,NULL,230
230242,JACKSONS CREEK @ U/S RIDDLES CREEK RWP OUTFALL,JACKSONS CK U/S RWP,NULL,NULL,NULL,55,297808.752,5849062.256,MGA94,-37.483237000,144.713182000,GDA94,NULL,.000,NULL,N,N,1,2018-06-23,NULL,230
230243,BOLINDA CREEK PDR FLOW @ BOLINDA CREEK OFFTAKE,BOLINDA CK PDR FLOW,NULL,NULL,NULL,55,293497.752,5861432.196,MGA94,-37.370876260,144.667920600,GDA94,NULL,.000,NULL,N,N,1,2012-01-17,NULL,230
230244,TAYLORS CREEK AT WALKWAY DOWNSTREAM GREEN GULLY ROAD,MATAY0018,NULL,NULL,NULL,55,308412.000,5822246.500,MGA94,-37.727000000,144.826000000,GDA94,NULL,.000,NULL,N,N,1,2007-01-01,NULL,230
230245,JACKSONS CREEK UPSTREAM SUNBURY-RIDDELLS ROAD,MAJAC0152,NULL,NULL,NULL,55,295177.300,5847962.600,MGA94,-37.492600000,144.683000000,GDA94,NULL,.000,NULL,N,N,1,2007-01-01,NULL,230
230246,DEEP CREEK @ ROMSEY,DEEP CK @ ROMSEY,NULL,NULL,NULL,55,303741.290,5862767.681,NULL,-37.360942000,144.783888000,GDA94,9,.000,NOT,N,N,1,2019-05-03,NULL,230
230250,Deep Creek @ Romsey Treatment Plant,Deep Ck @ Romsey TP,NULL,NULL,NULL,55,303629.462,5861933.818,NULL,-37.368429000,144.782405000,NULL,NULL,.000,NULL,N,N,1,2021-04-08,NULL,230
230704,BOLINDA CREEK OFFTAKE @ BOLINDA CREEK,BOLINDA CK OFFTAKE,NULL,NULL,NULL,55,293497.000,5861417.800,UTM,-37.370876260,144.667920600,GDA94,NULL,.000,NULL,Y,N,1,2012-01-17,NULL,230
230706,MAIN CREEK OFFTAKE @ FORSTER RESERVOIR,MAIN CK OFFTAKE,NULL,NULL,NULL,55,293810.000,5855778.000,UTM,-37.421739760,144.669879900,GDA94,NULL,.000,NULL,Y,N,1,2012-06-20,NULL,230
230707,PIPELINE INFLOW @ LANCEFIELD BASIN,INFLOW TO LANCEFIELD,NULL,NULL,NULL,55,295703.300,5871309.200,UTM,-37.282277120,144.695542000,GDA94,NULL,.000,NULL,Y,N,1,2011-12-21,NULL,230
231102,CHERRY DRAIN PIPELINE AT ALTONA,YAMOO0083,NULL,NULL,NULL,55,308250.512,5808733.585,MGA94,-37.848700000,144.820600000,GDA94,NULL,.000,NULL,N,N,1,1966-05-30,NULL,231
231200,WERRIBEE RIVER @ BACCHUS MARSH,WERRIBEE @ BACCHUS,99.044,NULL,363.00000,55,273214.000,5826449.000,UTM,-37.681017270,144.428267500,WGS84,9,119.000,9,Y,Y,1,1887-04-01,NULL,231
231203,PYKES CREEK @ PYKES CREEK RESERVOIR,PYKES @ PYKES,363.746,AHD,125.00000,55,261151.000,5833506.000,UTM,-37.614419580,144.293918600,WGS84,9,.000,1,Y,N,1,1908-11-23,NULL,231
231204,WERRIBEE RIVER @ WERRIBEE DIVERSION WEIR,WERRIBEE @ DIV. WEIR,.000,ARB,1424.00000,55,292934.000,5804924.000,UTM,-37.879526340,144.645565500,WGS84,9,31.000,9,Y,Y,1,1911-02-01,NULL,231
231205,WERRIBEE RIVER @ MELTON RESERVOIR (TAIL GAUGE),WERRIBEE @ MELTON,56.745,AHD,1155.00000,55,286131.000,5819552.000,UTM,-37.746228740,144.572594400,WGS84,9,77.000,9,Y,N,1,1917-01-01,NULL,231
231208,WERRIBEE RIVER @ COBBLEDICK FORD,WERRIBEE RIVER,.000,ARB,1356.00000,55,287115.000,5811348.000,UTM,-37.820336480,144.581345900,WGS84,9,.000,1,Y,Y,1,1930-03-06,NULL,231
231211,LERDERDERG RIVER @ U/S GOODMAN CREEK JUNCTION,LERDERDERG @ GOODMAN,119.145,AHD,234.00000,55,272973.000,5832020.000,UTM,-37.630721300,144.427204200,WGS84,9,134.000,9,Y,N,1,1956-05-31,NULL,231
231213,LERDERDERG RIVER @ SARDINE CREEK O'BRIEN CROSSING,LERDERDERG @ SARDINE,424.737,AHD,153.00000,55,266709.000,5846786.000,UTM,-37.496273980,144.361049800,WGS84,9,.000,1,Y,Y,1,1959-04-15,NULL,231
231214,PYRITES CREEK @ BACCHUS MARSH,PYRITES @ BACCHUS M.,NULL,NULL,NULL,55,278800.000,5826600.000,AMG66,-37.681021560,144.491601600,AGD66,1,.000,1,N,N,1,1960-05-10,NULL,231
231221,WERRIBEE RIVER @ MELTON RESERVOIR (HEAD GAUGE),WERRIBEE @ MELTON,NULL,NULL,NULL,55,285838.085,5819713.046,AMG66,-37.744710000,144.569320000,WGS84,1,.000,1,N,N,1,1916-07-26,NULL,231
231222,PYKES CREEK @ PYKES CREEK RESERVOIR (H.GAUGE),PYKES @ PYKES RESERV,NULL,NULL,NULL,55,261232.300,5833999.200,AMG66,-37.610000000,144.295000000,AGD66,1,.000,1,N,N,1,1911-10-01,NULL,231
231223,PYRITES CREEK @ MERRIMU RESERVOIR (HEAD GAUGE),PYRITES @ MERRIMU,NULL,NULL,NULL,55,278664.100,5831892.300,AMG66,-37.633333330,144.491666700,AGD66,1,.000,1,N,N,1,1969-09-26,NULL,231
231225,WERRIBEE RIVER @ BALLAN (U/S OLD WESTERN HWY),WERRIBEE @ BALLAN,471.951,AHD,71.00000,55,257155.000,5835013.000,UTM,-37.599805440,144.249192800,WGS84,9,.000,1,N,N,1,1973-05-15,NULL,231
231231,TOOLERN CREEK @ MELTON SOUTH,TOOLERN @ MELTON,87.031,AHD,95.00000,55,286628.000,5821625.000,UTM,-37.727676960,144.578839100,WGS84,9,.000,1,N,Y,1,1979-05-03,NULL,231
231233,BLACKWOOD BASIN 1 @ BLACKWOOD,BLACKWOOD B1,NULL,NULL,NULL,55,260313.389,5850936.688,MGA94,-37.457395000,144.290113000,GDA94,9,.000,9,N,N,1,2020-06-01,NULL,231
231234,PARWAN CREEK @ PARWAN,PARWAN CK @ PARWAN,.000,ARB,159.00000,55,272182.000,5821729.000,UTM,-37.723261090,144.415099200,WGS84,9,.000,1,N,Y,1,1994-03-21,NULL,231
231236,LONG GULLY CREEK @ BLACKWOOD,LONG GULLY BLACKWOOD,NULL,NULL,NULL,55,261304.068,5851132.331,ANG,-37.455760000,144.301380000,WGS84,1,.000,1,y,N,1,2002-12-18,NULL,231
231260,Outfall Spring @ Melton Treatment Plant (Surbiton Park),Outfall Spring @ MTP,NULL,NULL,NULL,55,287005.031,5818411.168,,-37.756706000,144.582172000,NULL,NULL,.000,NULL,N,N,1,2021-04-08,NULL,231
231262,Werribee River @ D/S Melton Treatment Plant,Werribee R D/S MTP,NULL,NULL,NULL,55,287744.561,5814920.070,NULL,-37.788316000,144.589539000,NULL,NULL,.000,NULL,N,N,1,2021-04-08,NULL,231
231731,Djerriwarrh Outlet Channel @ Djerriwarrh Reservoir,Djerriwarrh O/Let,NULL,NULL,NULL,55,281378.501,5835235.422,NULL,-37.603878000,144.523401000,NULL,NULL,.000,NULL,N,N,1,2021-11-16,NULL,231
232200,LITTLE RIVER @ LITTLE RIVER,LITTLE @ LITTLE,24.475,AHD,417.00000,55,279102.000,5796193.000,UTM,-37.954893550,144.485747800,WGS84,9,.000,1,Y,Y,1,1887-05-16,NULL,232
232201,MOORABOOL RIVER EAST BRANCH @ BOLWARRAH WEIR,MOORABOOL R E BRANCH,.000,GAU,.00000,55,250620.000,5839216.000,UTM,-37.560219830,144.176679700,WGS84,9,.000,1,Y,N,1,1908-08-11,NULL,232
232202,MOORABOOL RIVER @ BATESFORD,MOORABOOL @ BATESFOR,17.110,AHD,1088.00000,55,261303.000,5780762.000,UTM,-38.089311520,144.278224920,WGS84,9,29.000,9,Y,Y,1,1908-01-01,NULL,232
232204,MOORABOOL RIVER @ MORRISONS,MOORABOOL @ MORRISON,297.501,AHD,575.00000,55,245135.000,5816426.000,UTM,-37.763872360,144.106695400,WGS84,9,.000,1,Y,Y,1,1906-05-20,NULL,232
232209,MOORABOOL RIVER @ SHEOAKS,MOORABOOL R SHEOAKS,.000,NULL,.00000,55,247126.000,5801699.000,UTM,-37.896993960,144.124126400,WGS84,9,.000,0,Y,N,1,1967-01-09,NULL,232
232210,MOORABOOL RIVER WEST BRANCH @ LAL LAL,MOORABOOL @ LAL LAL,.000,ARB,83.00000,55,239028.000,5829646.000,UTM,-37.643153790,144.042187500,WGS84,9,488.000,9,Y,Y,1,1967-03-22,NULL,232
232211,MOORABOOL RIVER WEST BRANCH @ MOUNT DORAN,MOORABOOL @ DORAN,.000,ARB,292.00000,55,243845.000,5822217.000,UTM,-37.711383520,144.094108300,WGS84,9,.000,1,Y,N,1,1970-06-26,NULL,232
232213,LAL LAL CREEK @ U/S OF BUNGAL DAM,LAL LAL @ BUNGAL DAM,NULL,NULL,NULL,55,238334.400,5828343.500,MGA94,-37.654680560,144.033869400,GDA94,9,470.000,9,y,N,1,1977-06-06,NULL,232
232214,BLACK CREEK @ U/S OF BUNGAL DAM,BLACK @ BUNGAL DAM,NULL,NULL,NULL,55,240761.878,5831181.811,AMG66,-37.629820000,144.062360000,WGS84,1,.000,1,N,N,1,1977-06-06,NULL,232
232215,WOOLLEN CREEK @ U/S OF BUNGAL DAM,WOOLLEN @ BUNGAL DAM,NULL,NULL,NULL,55,242400.000,5830800.000,AMG66,-37.633717500,144.080766200,AGD66,1,.000,1,N,N,1,1977-06-06,NULL,232
232217,MOORABOOL R WEST BRANCH @ MOORABOOL RESERVOIR HG,MOORABOOL WB RES HG,NULL,NULL,NULL,55,242346.900,5843944.300,MGA94,-37.515510060,144.084769600,GDA94,9,.000,1,N,N,1,2009-07-15,NULL,232
232219,LAL LAL CREEK @ BEALES RESERVOIR,LAL LAL C BEALES RES,NULL,NULL,NULL,55,237294.000,5840891.000,ANG,-37.541439870,144.026592300,GDA94,1,595.000,1,N,N,1,2007-12-20,NULL,232
232220,LAL LAL CREEK @ WILSON RESERVOIR H.G.,LAL LAL C WILSON RES,NULL,NULL,NULL,55,236428.000,5843881.000,ANG,-37.514278710,144.017875300,GDA94,1,618.000,1,N,N,1,2007-12-18,NULL,232
232221,MOORABOOL RIVER EAST BRANCH @ BOSTOC RESERVOIR,BOSTOCK RES. H.G.,.000,NULL,.00000,55,251646.000,5834163.000,UTM,-37.605987180,144.186569800,WGS84,9,.000,1,Y,N,1,2001-05-30,NULL,232
232222,WEST MOORABOOL RIVER @ LAL LAL RES. H.G.,LAL LAL RES. H.G.,NULL,NULL,NULL,55,241982.000,5826002.000,UTM,-37.676790040,144.074339300,WGS84,9,.000,1,N,N,1,2007-12-07,NULL,232
232223,FRAWLEY CREEK @ U/S WILSON RESERVOIR,FRAWLEY CK WILSON RS,NULL,NULL,NULL,55,235899.488,5844902.808,AMG66,-37.504930000,144.012270000,WGS84,1,.000,1,N,N,1,1995-06-20,NULL,232
232224,SLATER CREEK @ U/S WILSON RESERVOIR,SLATER CK WILSON RES,.000,ARB,.00000,55,236987.406,5844840.656,NULL,-37.505800000,144.024540000,WGS84,1,.000,1,Y,N,1,1995-06-22,NULL,232
232225,MAHARS CREEK @ U/S WILSON RESERVOIR,MAHARS CK @ U/S WILS,.000,ARB,.00000,55,236563.539,5845201.617,NULL,-37.502430000,144.019880000,WGS84,1,.000,1,y,N,1,1995-09-28,NULL,232
232227,MOORABOOL RIVER @ SHEOAKS DIVERSION WEIR,MOORABOOL R SHEOAKS,.000,GAU,.00000,55,247482.000,5801917.000,UTM,-37.895130410,144.128246800,WGS84,9,.000,0,Y,N,1,2000-07-25,NULL,232
232228,STONEY CREEK @ UPPER STONEY RESERVOIR SPILLWAY,UPPER STONEY RES,.000,AHD,.00000,55,254341.000,5810501.000,UTM,-37.819730820,144.209081600,WGS84,9,.000,0,Y,N,1,2000-07-25,NULL,232
232230,EAST MOORABOOL RIVER @ KORWEINGUBOORA RES H.G.,KORWEINGUBOORA RES.,.000,NULL,.00000,55,248130.000,5844919.000,UTM,-37.508201880,144.150477100,WGS84,9,.000,0,Y,N,1,1983-01-01,NULL,232
232231,EAST MOORABOOL RIVER @ KORWEINGUBOORA RES P.D.R.,KORWEINGUBOORA PDR,.000,NULL,.00000,55,248292.000,5844868.000,UTM,-37.508705190,144.152290300,WGS84,9,.000,0,Y,N,1,2000-07-25,NULL,232
232232,EAST MOORABOOL RIVER @ BOSTOCK RES (COMPENSATION WEIR),BOSTOCK RES COMPWEIR,.000,GAU,.00000,55,251802.000,5834033.000,UTM,-37.607199620,144.188291000,WGS84,9,.000,0,Y,N,1,2000-07-25,NULL,232
232233,PADDOCK CREEK U/S BOSTOCK RES,PADDOCK C U/S BOSTOC,.000,NULL,.00000,55,249486.000,5835467.000,UTM,-37.593662380,144.162574300,WGS84,9,.000,1,Y,N,1,2000-08-04,NULL,232
232234,EAST MOORABOOL R U/S BOSTOCK RES,E MOORABOOL R BOSTOC,.000,NULL,.00000,55,250574.000,5835489.000,UTM,-37.593759840,144.174891200,WGS84,9,.000,1,Y,N,1,2000-08-04,NULL,232
232235,DEVIL CREEK U/S MOORABOOL RESERVOIR,DEVIL CK U/S M'BOOL,NULL,NULL,NULL,55,241056.221,5844911.768,AMG66,-37.506310000,144.070540000,WGS84,1,.000,1,N,N,1,2001-05-09,NULL,232
232236,WEST MOORABOOL RIVER U/S MOORABOOL RESERVOIR,WEST MOORABOOL R,NULL,NULL,NULL,55,241400.000,5846000.000,AMG66,-37.496610250,144.074807100,AGD66,1,.000,1,N,N,1,2001-05-09,NULL,232
232237,BOLWARRA RES. H.G.,BOLWARRA RES HG,.000,GAU,.00000,55,250636.000,5839391.000,UTM,-37.558648710,144.176920200,WGS84,9,.000,0,Y,N,1,2002-05-23,NULL,232
232238,STONEY CREEK @ UPPER STONEY CK RES NO 2 H.G.,U.STONEY CK RES HG 2,.000,AHD,.00000,55,253186.000,5810138.000,UTM,-37.822687130,144.195850400,WGS84,9,.000,0,Y,N,1,2003-11-19,NULL,232
232239,STONEY CREEK @ UPPER STONEY CK RES NO 3 H.G.,U.STONEY CK RES HG 3,.000,AHD,.00000,55,253352.000,5810042.000,UTM,-37.823596220,144.197701600,WGS84,9,.000,0,Y,N,1,2003-11-19,NULL,232
232242,MOORABOOL R @ COOPERS CROSSING MEREDITH,MOORABOOL R MEREDITH,NULL,NULL,NULL,55,247681.123,5805612.469,ANG,-37.861920000,144.131800000,WGS84,1,.000,1,N,N,1,2007-02-02,NULL,232
232243,WHISKY CREEK @ WHISKY CREEK DIVERSION WEIR,WHISKY CK DIV. WEIR,NULL,NULL,NULL,55,241549.300,5841454.500,UTM,-37.537569910,144.074895800,GDA94,NULL,604.000,NULL,N,N,1,2011-11-22,NULL,232
232704,NO 2 INFLOW CHANNEL @ UPPER STONEY CREEK RES,NO 2 I/FLOW CH STONY,.000,GAU,.00000,55,252678.000,5811074.000,UTM,-37.814123490,144.190404800,WGS84,9,.000,0,Y,N,1,2000-07-25,NULL,232
232705,BOSTOCK CHANNEL @ EGERTON ROAD,BOSTOCK CH EGERTON R,.000,NULL,.00000,55,250751.000,5831280.000,UTM,-37.631699260,144.175459800,WGS84,9,.000,0,Y,N,1,2000-07-25,NULL,232
232706,KORWEINGUBOORA OUTLET CHANNEL @ KORWEINGUBOORA RES,KORWEINGUBOORA O/LET,.000,GAU,.00000,55,248208.000,5844901.000,UTM,-37.508385200,144.151352300,WGS84,9,.000,0,Y,N,1,2000-07-25,NULL,232
232708,BALLAN CHANNEL D/S BOSTOCK CHANNEL JUNCTION,BALLAN CH D/S BOSTOC,.000,NULL,.00000,55,253490.000,5826734.000,UTM,-37.673364080,144.204929900,WGS84,9,.000,0,Y,N,1,2001-06-08,NULL,232
232709,BALLAN CHANNAL @ 26.1 KM GAUGE,BALLAN CH @ 26.1KM,.000,NULL,.00000,55,251498.000,5818828.000,UTM,-37.743999650,144.179670300,WGS84,9,.000,1,Y,N,1,2000-08-04,NULL,232
232710,BALLAN CHANNEL @ 35.3 KM GAUGE,BALLAN CH @ 35.3 KM,.000,NULL,.00000,55,253257.000,5814489.000,UTM,-37.783537040,144.198137400,WGS84,9,.000,0,Y,N,1,2000-08-04,NULL,232
232712,WILSON CHANNEL UPSTREAM BEALE'S RESERVOIR,WILSON CH U/S BEALES,NULL,NULL,NULL,55,236415.900,5841837.400,UTM,-37.532670420,144.017005600,GDA94,NULL,.000,NULL,N,N,1,2010-05-18,NULL,232
232713,BEALE CHANNEL @ BULLY PARK,BEALE CH BULLY PARK,NULL,NULL,NULL,55,237319.600,5840231.800,UTM,-37.547380890,144.026645800,GDA94,NULL,.000,NULL,N,N,1,2010-05-11,NULL,232
232714,MOORABOOL CHANNEL @ BULLY PARK,MOORABOOL C BULLY PK,NULL,NULL,NULL,55,237278.700,5840100.600,UTM,-37.548550210,144.026136500,GDA94,NULL,.000,NULL,N,N,1,2010-05-11,NULL,232
232715,MOORABOOL CHANNEL @ BUNGAREE,MOORABOOL C BUNGAREE,NULL,NULL,NULL,54,763944.700,5839851.800,UTM,-37.550440270,143.987784000,GDA94,NULL,.000,NULL,N,N,1,2010-05-26,NULL,232
232800,RAINGAUGE (STONY CK) @ UPPER STONEY CK RESERVOIR,R.G.STONY CK RES.,.000,NULL,.00000,55,254237.000,5810132.000,UTM,-37.823024720,144.207776100,WGS84,9,.000,0,Y,N,1,2000-05-29,NULL,232
232805,RAINGAUGE AT BLACKHILL,RG BLACKHILL,NULL,NULL,NULL,55,241881.600,5836718.000,MGA94,-37.580430000,144.076970000,GDA94,1,580.000,1,N,N,1,2006-08-31,NULL,232
232806,RAINGAUGE AT YENDON,R.G. AT YENDON,NULL,NULL,NULL,54,758784.900,5830492.800,MGA94,-37.636280000,143.932770000,GDA94,1,510.000,1,N,N,1,2007-06-18,NULL,232
232807,WEATHER STATION AT MOORABOOL RESERVOIR,WS AT MOORABOOL RES,NULL,NULL,NULL,55,242310.400,5843924.300,MGA94,-37.515679910,144.084350100,GDA94,9,.000,1,N,N,1,2004-10-21,NULL,232
232808,WEATHER STATION AT LAL LAL RESERVOIR,WS AT LAL LAL RES.,NULL,NULL,NULL,55,241869.000,5825799.900,MGA94,-37.678707940,144.072972200,GDA94,9,.000,1,N,N,1,2005-10-15,NULL,232
233200,BARWON RIVER @ POLLOCKSFORD,BARWON POLLOCKSFORD,24.074,AHD,2713.00000,55,253492.000,5774521.000,UTM,-38.143395970,144.187100410,WGS84,9,.000,1,Y,Y,1,1906-07-01,NULL,233
233201,BARWON RIVER @ WINCHELSEA,BARWON WINCHELSEA,.000,ARB,1052.00000,54,761829.600,5763126.300,UTM,-38.241768775,143.991733515,GDA94,9,.000,1,Y,Y,1,1922-02-16,NULL,233
233209,LEIGH RIVER @ INVERLEIGH,LEIGH @ INVERLEIGH,.000,ARB,881.00000,55,242392.000,5779017.000,UTM,-38.099828090,144.062212190,WGS84,9,64.000,9,n,N,1,1946-03-15,NULL,233
233211,BIRREGURRA CREEK @ RICKETTS MARSH,BIRREGURRA @ RICKETT,98.907,AHD,87.70000,54,748217.000,5757511.000,UTM,-38.296042490,143.838326000,WGS84,9,.000,1,Y,Y,1,1953-06-19,NULL,233
233213,LEIGH RIVER @ SHELFORD,LEIGH @ SHELFORD,.000,NULL,839.00000,54,761375.000,5788449.000,UTM,-38.013852780,143.977252800,WGS84,9,.000,1,Y,Y,1,1954-05-12,NULL,233
233214,BARWON RIVER EAST BRANCH @ FORREST,BARWON @ FORREST,.000,ARB,17.00000,54,737900.000,5731500.000,NULL,-38.532988080,143.729279600,NULL,1,.000,1,Y,Y,1,1955-05-27,NULL,233
233215,LEIGH RIVER @ MOUNT MERCER,LEIGH @ MERCER,.000,ARB,593.00000,54,756918.000,5811162.000,UTM,-37.810681860,143.918447700,WGS84,9,300.000,9,Y,Y,1,1956-10-11,NULL,233
233217,BARWON RIVER @ GEELONG,BARWON @ GEELONG,.000,ARB,3925.00000,55,267562.000,5772691.000,UTM,-38.163605590,144.346892190,WGS84,9,.000,1,Y,Y,1,1960-11-18,NULL,233
233218,BARWON RIVER @ INVERLEIGH,BARWON @ INVERLEIGH,.000,NULL,1269.00000,54,762042.000,5773384.000,UTM,-38.149252640,143.990359800,WGS84,9,.000,1,Y,Y,1,1961-03-15,NULL,233
233223,WARRAMBINE CREEK @ WARRAMBINE,WARRAMBINE @ WARRAMB,.000,ARB,57.00000,54,751925.000,5798213.000,UTM,-37.928637000,143.866311600,WGS84,9,186.000,9,Y,N,1,1970-06-02,NULL,233
233224,BARWON RIVER @ RICKETTS MARSH,BARWON @ RICKETTS,96.823,AHD,593.00000,54,747700.000,5754286.000,UTM,-38.325214670,143.833551100,WGS84,9,.000,1,Y,Y,1,1971-07-27,NULL,233
233228,BOUNDARY CREEK @ YEODENE,BOUNDARY @ YEODENE,.000,ARB,39.00000,54,736670.000,5743949.000,UTM,-38.421250090,143.710979900,WGS84,9,.000,1,Y,Y,1,1979-06-23,NULL,233
233229,BOUNDARY CREEK @ D/S OF MACDONALDS DAM,BOUNDARY @ MACDONALD,NULL,NULL,NULL,54,734164.000,5745422.900,MGA94,-38.408774940,143.681827530,GDA94,1,.000,1,N,N,1,1989-12-04,NULL,233
233231,BOUNDARY CREEK @ U/S OF MCDONALDS DAM,BOUNDARY @ MCDONALDS,.000,ARB,27.00000,54,733561.264,5745991.701,NULL,-38.403679000,143.674728000,WGS84,1,.000,1,N,N,1,1989-12-04,NULL,233
233240,MATTHEWS CREEK @ CHANNEL OFFTAKE,MATTHEWS CK @ O/TAKE,.000,ARB,18.60000,54,747509.000,5742439.000,UTM,-38.431905110,143.835531390,GDA94,9,.000,1,Y,N,1,2000-08-02,NULL,233
233244,WEST BARWON RIVER @ WEST BARWON RESERVOIR H.G.,WEST BARWON RES H.G.,.000,NULL,.00000,54,737093.000,5731708.000,UTM,-38.531331070,143.719960550,WGS84,9,.000,1,Y,N,1,2001-11-28,NULL,233
233245,WEST BARWON RIVER @ COMPENSATION WEIR SPILLWAY,WEST BARWON COMP WER,.000,GAU,51.00000,54,737400.000,5732167.000,UTM,-38.527117380,143.723322950,WGS84,9,.000,0,Y,N,1,2000-09-01,NULL,233
233246,CALLAHAN CREEK @ OFFTAKE,CALLAHAN CK O/TAKE,.000,GAU,34.20000,54,740743.000,5735175.000,UTM,-38.499142720,143.760596080,WGS84,9,.000,0,Y,N,1,2000-11-10,NULL,233
233247,BARWON RIVER @ KILDEAN LANE,BARWON R @ KILDEAN,.000,ARB,864.00000,54,756880.276,5756880.464,UTM,-38.299280000,143.937500000,WGS84,9,.000,1,Y,Y,1,1993-06-17,NULL,233
233250,AGROFORESTRY SITE @ RACECOURSE PADDOCK GERANGAMETE,AGROFORESTRY SITE,.000,ARB,1.00000,54,738357.000,5740918.000,UTM,-38.448086500,143.731312230,WGS84,9,.000,1,Y,N,1,1994-07-28,NULL,233
233254,East Barwon River @ U/S King Ck Junction,East Barwon R @ KCJ,NULL,NULL,NULL,54,739230.300,5736555.100,MGA94,-38.487260176,143.742812082,GDA94,GPS,143.000,GPS,Y,Y,1,2020-12-17,NULL,233
233255,West Barwon River @ Boundary Road Forrest,W/Barwon @ Boundry,NULL,NULL,NULL,54,734023.530,5736617.913,MGA94,-38.488077000,143.683156000,GDA94,GPS,146.000,9,N,N,1,2021-02-04,NULL,233
233257,DEWING CREEK @ BIBIRAGURRA-FORREST ROAD,DEWING CK,.000,NULL,.00000,54,741663.000,5739035.000,UTM,-38.464147620,143.769803210,WGS84,9,.000,1,Y,N,1,2000-08-02,NULL,233
233258,PENNYROYAL CREEK @ RAILWAY CULVERT,P'ROYAL C RAILWAY CV,.000,ARB,.00000,54,749577.000,5744978.000,UTM,-38.408476160,143.858294330,WGS84,9,149.000,9,Y,N,1,2000-08-07,NULL,233
233259,WURDIBOLUC RESERVOIR H.G.,WURDIBOLUC RES HG,.000,NULL,.00000,55,241998.000,5758756.000,UTM,-38.282077550,144.050372380,WGS84,9,.000,0,Y,N,1,2003-04-08,NULL,233
233267,WEST BARWON R U/S BARRAMUNGA,WEST BARWON BARRAMUA,.000,ARB,.00000,54,736231.000,5726314.000,ANG,-38.580100000,143.711900000,AGD66,1,.000,1,NULL,N,1,2006-12-11,NULL,233
233268,EAST BARWON RIVER @ FLUME,E. BARWON R @ FLUME,.000,ARB,.00000,54,738162.000,5734190.000,UTM,-38.508703170,143.731366300,WGS84,9,.000,1,N,N,1,2009-07-03,NULL,233
233269,BARWON RIVER U/S LOWER BARRAGE OF GEELONG WETLANDS,BARWON R U/S BARRAGE,.000,AHD,.00000,55,273342.000,5767266.000,UTM,-38.213920330,144.411074260,WGS84,NULL,.000,NULL,Y,N,1,2012-04-23,NULL,233
233271,CLARKES CREEK D/S DIVERSION WEIR,CLARKES CK DIV WEIR,NULL,NULL,NULL,54,759080.800,5843987.700,UTM,-37.514595150,143.931337500,GDA94,NULL,.000,NULL,N,N,1,2011-05-12,NULL,233
233272,FELLMONGERS CREEK @ GONG GONG RES. H.G.,FELLMONGERS C AT RES,NULL,NULL,NULL,54,759124.800,5840255.800,UTM,-37.548171120,143.933147500,GDA94,NULL,.000,NULL,y,N,1,2011-03-01,NULL,233
233273,BOUNDARY CREEK @ BARONGAROOK,BOUNDARY CK BARONGAR,NULL,NULL,NULL,54,729923.500,5744889.600,MGA94,-38.414676980,143.633484330,GDA94,NULL,215.000,NULL,N,N,1,2014-06-23,NULL,233
233274,Fellmongers Creek @ U/S Gong Gong Reservoir,Fellmongers Ck,NULL,NULL,NULL,54,759712.421,5841547.754,MGA94,-37.536376000,143.939334000,GDA94,NULL,.000,NULL,N,N,1,2017-06-23,NULL,233
233275,Boundary Creek @ U/S Big Swamp,Boundary Ck U/S,NULL,NULL,NULL,54,735028.200,5743835.300,NULL,-38.422707043,143.692230912,GDA94,NULL,.000,NULL,Y,N,1,2019-06-07,NULL,233
233276,Boundary Creek @ D/S Big Swamp,Boundary Ck D/S,.000,GAU,.00000,54,735922.100,5743913.400,MGA,-38.421768367,143.702433730,GDA94,9,.000,GPS,Y,N,1,2019-06-06,NULL,233
233277,GILES CREEK @ U/s GILES CK DIVERSION,Giles Div,NULL,NULL,NULL,54,760837.746,5840732.608,MGA94,-37.543526000,143.952360000,GDA94,NULL,.000,9,Y,N,1,2020-07-09,NULL,233
233278,GILES CREEK PDR @ GILES CK DIVERSION,Giles PDR,NULL,NULL,NULL,54,760837.746,5840732.608,MGA94,-37.543526000,143.952360000,GDA94,NULL,.000,9,Y,N,1,2020-03-04,NULL,233
233600,LAKE MURDEDUKE,LAKE MURDEDUKE,114.000,AHD,.00000,54,755573.000,5769909.000,UTM,-38.182386470,143.917874150,WGS84,9,.000,1,Y,N,1,1980-02-01,NULL,233
233603,REEDY LAKE AT CONNEWARRE,REEDY LK CONNEWERRE,NULL,NULL,NULL,55,274821.003,5767928.020,MGA94,-38.208463500,144.428147800,GDA94,NULL,.000,NULL,NULL,N,1,2016-04-15,NULL,233
233604,HOSPITAL SWAMP AT CONNEWARRE,HOSPITAL SWAMP CONNE,NULL,NULL,NULL,55,272454.002,5765454.020,MGA94,-38.230142400,144.400346000,GDA94,NULL,.000,NULL,NULL,N,1,2016-04-18,NULL,233
233605,GILES CREEK @ KIRKS RESERVOIR H.G,GILES CK @ KIRKS,NULL,NULL,NULL,54,759291.552,5839795.914,MGA94,-37.552394000,143.935211000,GDA94,NULL,.000,NULL,N,N,1,2018-02-15,NULL,233
233703,WURDIBOLUC INLET CHANNEL @ EAST BARWON OFFTAKE,WURDIBOLUC INLET CH,.000,GAU,.00000,54,738157.000,5734197.000,UTM,-38.508641500,143.731306580,WGS84,9,.000,0,Y,N,1,2000-07-25,NULL,233
233704,CALLAHAN CHANNEL @ OFFTAKE,CALLAHAN CH @ O/TAKE,.000,NULL,.00000,54,740792.000,5735154.000,UTM,-38.499318510,143.761164580,WGS84,9,.000,0,Y,N,1,2000-09-01,NULL,233
233706,PINCOTT CHANNEL D/S PINCOTT RESERVOIR,PINCOTT CH D/S RES.,NULL,NULL,NULL,54,760827.716,5840228.125,UTM,-37.547940000,143.952410000,WGS84,1,.000,1,N,N,1,1997-05-22,NULL,233
233707,PINCOTT-WHITE SWAN CHANNEL U/S LONG HILL AQUADUCT,PINCOTT-W. SWANN CH.,NULL,NULL,NULL,54,759505.117,5841775.973,ANG,-37.534380000,143.936910000,WGS84,1,.000,1,N,N,1,2005-10-06,NULL,233
233708,BEALE-PINCOTT CHANNEL @ KIERCES RD,BEALE-PINCOTT CH.,NULL,NULL,NULL,54,762249.822,5840165.529,UTM,-37.548100000,143.968510000,WGS84,1,.000,1,N,N,1,1997-05-22,NULL,233
233709,MATTHEWS CHANNEL @ SYPHON,MATTHEWS CH @ SYPHON,.000,NULL,.00000,54,747425.774,5742484.457,UTM,-38.431519000,143.834563000,WGS84,9,.000,0,Y,N,1,2000-07-06,NULL,233
233710,PENNYROYAL CHANNEL D/S OF OFFTAKE,PENNYROYAL C D/S O/T,.000,NULL,.00000,54,749562.000,5744926.000,UTM,-38.408948400,143.858141190,WGS84,9,152.000,9,Y,N,1,2000-07-06,NULL,233
233711,WURDIBOLUC CHANNEL @ 8.5 MILE,WURDIBOLUC CH 8.5M,.000,GAU,.00000,54,742541.000,5740586.000,UTM,-38.449947960,143.779319260,WGS84,9,150.000,9,Y,N,1,2000-07-06,NULL,233
233712,WURDIBOLUC INLET CHANNEL @ 12 MILE,WURDIBOLUC 12 MIL,.000,ARB,.00000,54,745360.000,5743212.000,UTM,-38.425540030,143.810669480,WGS84,9,.000,0,Y,N,1,2000-08-02,NULL,233
233715,WBIC @ Wurdibuloc Reservoir Inlet,Wurdibuloc Res Inlet,NULL,NULL,NULL,55,240682.598,5756506.598,MGA94,-38.301944000,144.034528000,GDA94,GPS,138.000,GPS,N,N,1,2021-03-30,NULL,233
233718,BALLARAT STH WASTE WATER TREATMENT PLANT O/FALL,BALLARAT S WWTP O/F,NULL,NULL,NULL,54,751125.099,5833395.964,AMG66,-37.612140000,143.845050000,WGS84,1,.000,1,N,N,1,2001-08-29,NULL,233
233723,WURDIBOLUC INLET CHANNEL @ DEWINGS SYPHON,WBIC AT DEWINGS SYPH,NULL,NULL,NULL,54,741690.544,5739097.562,UTM,-38.463577000,143.770097000,WGS84,NULL,.000,NULL,N,N,1,2014-07-16,NULL,233
233724,DEWING'S CHANNEL @ WBIC JUNCTION,DEWING'S CH AT WBIC,NULL,NULL,NULL,54,741412.800,5738793.300,MGA94,-38.466524410,143.767032400,GDA94,NULL,.000,NULL,y,N,1,2015-01-13,NULL,233
233801,RAINGAUGE (WEST BARWON R) @ WEST BARWON DAM,RG WEST BARWON R,.000,NULL,.00000,54,737045.000,5731690.000,UTM,-38.531505890,143.719416570,WGS84,9,.000,1,Y,N,1,1995-05-11,NULL,233
233802,RAINGAUGE MOUNT SABINE,R.G. MT SABINE,.000,NULL,.00000,54,737636.000,5721414.000,UTM,-38.623850170,143.729690740,WGS84,9,.000,1,Y,N,1,1996-12-20,NULL,233
233803,RAINGAUGE MOUNT COWLEY,R.G. MT COWLEY,.000,NULL,.00000,54,749264.000,5729503.000,UTM,-38.547852390,143.860216990,WGS84,9,.000,1,Y,N,1,1996-12-20,NULL,233
233813,RAINGAUGE @ BOONAH,R.G. BOONAH,.000,NULL,.00000,54,760023.000,5744518.000,UTM,-38.409638850,143.977951210,WGS84,9,.000,0,Y,N,1,2000-05-29,NULL,233
233814,RAINGAUGE @ BENWERIN,R.G. BENWERIN,.000,NULL,.00000,54,754145.000,5736497.000,UTM,-38.483522520,143.913617670,WGS84,9,.000,0,Y,N,1,1999-04-09,NULL,233
233815,RAINGAUGE @ BUNINYONG,R.G. BUNINYONG,.000,NULL,.00000,54,759582.000,5826394.000,UTM,-37.672820380,143.943234000,WGS84,9,.000,0,Y,N,1,2000-05-29,NULL,233
234200,WOADY YALOAK RIVER @ PITFIELD,WOADY YALOAK@PITFI'D,.000,ARB,324.00000,54,727619.600,5812255.000,UTM,-37.808599000,143.585580000,WGS84,9,.000,1,Y,N,1,1917-08-07,NULL,234
234201,WOADY YALOAK RIVER @ CRESSY (YARIMA),WOADY YALOAK@CRESSY,.000,NULL,1158.00000,54,732002.000,5789557.000,UTM,-38.011871530,143.642660200,WGS84,9,.000,1,Y,Y,1,1955-05-08,NULL,234
234203,PIRRON YALLOCK CREEK @ PIRRON YALLOCK (ABOVE H'WY BR.),PIRRON YAL'K @HWY BR,121.699,AHD,166.00000,54,711410.000,5752133.000,UTM,-38.353894840,143.419430150,WGS84,9,.000,1,Y,Y,1,1964-04-30,NULL,234
234205,NO. 1 WATERWAY @ LAKE TERANGPOM,NO 1 WATERWAY,.000,ARB,.00000,54,703252.000,5779116.000,UTM,-38.112799410,143.318408830,WGS84,9,.000,1,Y,N,1,1963-07-30,NULL,234
234209,DEAN CREEK @ LAKE COLAC,DEAN @ LAKE COLAC,.000,ARB,49.00000,54,723596.000,5753521.000,UTM,-38.338438690,143.558324820,WGS84,9,.000,1,Y,N,1,1975-11-12,NULL,234
234603,LAKE CORANGAMITE @ WOOL WOOL,L. CORANGAMITE WOOL,.000,AHD,.00000,54,711504.665,5766490.739,UTM,-38.224590000,143.416220000,WGS84,9,112.000,9,Y,N,1,2003-05-27,NULL,234
234605,LAKE GNARPURT @ GNARPURT,LAKE GNARPURT,.000,AHD,.00000,54,712242.000,5783572.000,UTM,-38.070606970,143.419547500,WGS84,9,.000,1,Y,N,1,1966-08-01,NULL,234
234606,LAKE COLONGULAC @ CAMPERDOWN,LAKE COLANGULAC,.000,AHD,.00000,54,688277.000,5769980.000,UTM,-38.198326650,143.150126290,WGS84,9,.000,1,Y,N,1,1965-04-30,NULL,234
234607,LAKE GNOTUK @ CAMPERDOWN,LAKE GNOTUK,.000,AHD,.00000,54,683790.000,5766708.000,UTM,-38.228722900,143.099763780,WGS84,9,.000,1,Y,N,1,1964-12-18,NULL,234
234608,LAKE BULLEM MERRI @ CAMPERDOWN (SOUTH END),LAKE BULLEN MERRI,.000,AHD,.00000,54,683601.000,5763146.000,UTM,-38.260842420,143.098528340,WGS84,9,.000,1,Y,N,1,1978-05-04,NULL,234
234609,LAKE TOOLIOROOK @ LISMORE,LAKE TOOLIOROOK,.000,AHD,.00000,54,700628.000,5794148.000,UTM,-37.978013840,143.284288000,WGS84,9,.000,1,Y,N,1,1965-07-19,NULL,234
234610,LAKE BOOKAR @ CAMPERDOWN,LAKE BOOKAR,.000,NULL,.00000,54,684509.000,5776360.000,UTM,-38.141645180,143.105468430,WGS84,9,.000,1,Y,N,1,1979-07-20,NULL,234
234611,LAKE KARIAH @ CAMPERDOWN,LAKE KARIAH,.000,AHD,.00000,54,693926.000,5772855.000,UTM,-38.171235990,143.213810040,WGS84,9,.000,1,Y,N,1,1979-07-20,NULL,234
234617,LAKE COLAC (H.G.) AT COLAC TOWNSHIP,LAKE COLAC,NULL,NULL,NULL,54,724956.000,5756782.000,MGA94,-38.308871405,143.572846464,GDA94,NULL,.000,NULL,N,N,1,2018-05-21,NULL,234
234801,RAINGAUGE (LAKE COLAC) @ COLAC,R.G. COLAC,NULL,NULL,NULL,54,726384.700,5753417.200,MGA94,-38.338840000,143.590280000,GDA94,NULL,.000,NULL,NULL,N,1,2016-01-29,NULL,234
235202,GELLIBRAND RIVER @ UPPER GELLIBRAND,GELLIBRAND @ GELLI.,.000,ARB,53.00000,54,731446.000,5728372.000,UTM,-38.562849370,143.656348160,WGS84,9,.000,1,Y,Y,1,1949-08-25,NULL,235
235203,CURDIES RIVER @ CURDIE,CURDIES @ CURDIE,3.897,AHD,790.00000,54,671064.000,5742982.000,UTM,-38.444980550,142.960194500,WGS84,9,15.000,9,Y,Y,1,1955-10-05,NULL,235
235204,LITTLE AIRE CREEK @ BEECH FOREST,LITTLE AIRE @ BEECH,.000,ARB,11.00000,54,720083.000,5718476.000,UTM,-38.654830500,143.529181480,WGS84,9,420.000,9,Y,N,1,1955-04-14,NULL,235
235205,ARKINS CREEK WEST BRANCH @ WYELANGTA,ARKINS @ WYELANGTA,343.045,AHD,4.43000,54,712640.000,5720374.000,UTM,-38.639559220,143.443139690,WGS84,9,.000,1,Y,Y,1,1958-02-13,NULL,235
235209,AIRE RIVER @ BEECH FOREST,AIRE @ BEECH FOREST,.000,ARB,21.00000,54,724574.000,5716833.000,UTM,-38.668494990,143.581274930,WGS84,9,297.000,9,Y,Y,1,1964-03-12,NULL,235
235210,LARDNER CREEK @ GELLIBRAND,LARDNER @ GELLIBRAND,65.249,AHD,52.00000,54,721780.000,5731882.000,UTM,-38.533712700,143.544398820,WGS84,9,.000,1,Y,N,1,1964-06-18,NULL,235
235211,KENNEDYS CREEK @ KENNEDYS CREEK,KENNEDYS @ KENNEDYS,.000,ARB,268.00000,54,696535.000,5726391.000,UTM,-38.589093950,143.256540200,WGS84,9,.000,1,Y,Y,1,1964-06-17,NULL,235
235216,CUMBERLAND RIVER @ LORNE,CUMBERLAND @ LORNE,.000,ARB,38.00000,54,756757.000,5726523.000,UTM,-38.572541320,143.947188640,WGS84,9,.000,1,Y,Y,1,1966-05-01,NULL,235
235219,AIRE RIVER @ WYELANGTA,AIRE @ WYELANGTA,.000,ARB,90.00000,54,715422.000,5713234.000,UTM,-38.703171800,143.477291890,WGS84,9,.000,1,Y,N,1,1967-03-29,NULL,235
235222,SALT CREEK @ ALCOA,ANGLESEA @ ANGLESEA,.000,ARB,52.00000,55,253472.000,5747581.000,MGA94,-38.386024853,144.177481455,GDA94,1,.000,1,N,N,1,1967-06-08,NULL,235
235224,GELLIBRAND RIVER @ BURRUPA,GELLIBRAND @ BURRUPA,1.098,AHD,1046.00000,54,695504.000,5713931.000,UTM,-38.701522970,143.248216100,WGS84,9,.000,1,Y,Y,1,1969-03-20,NULL,235
235225,GELLIBRAND RIVER @ CARLISLE RIVER (PUMPING STATION),GELLIBRAND @CARLIS.P,.000,NULL,495.00000,54,706301.990,5729478.946,NULL,-38.559074000,143.367681000,WGS84,1,.000,1,N,N,1,1969-12-01,NULL,235
235227,GELLIBRAND RIVER @ BUNKERS HILL,GELLIBRAND @ BUNKERS,49.783,AHD,311.00000,54,716447.566,5733095.498,UTM,-38.524100000,143.482900000,WGS84,9,.000,1,Y,Y,1,1970-03-10,NULL,235
235231,Gellibrand River @ Raffertys Lane Gellibrand,Gellibrand @ Raffert,NULL,NULL,NULL,54,723425.900,5732310.000,MGA,-38.529581193,143.563141418,GDA94,GPS,76.000,GPS,N,N,1,2022-05-27,NULL,235
235232,PAINKALAC CREEK @ PAINKALAC CREEK DAM,PAINKALAC CREEK DAM,18.578,AHD,36.00000,55,244326.000,5741054.000,UTM,-38.442070780,144.070535360,WGS84,9,.000,1,Y,N,1,1974-03-26,NULL,235
235233,BARHAM RIVER EAST BRANCH @ APOLLO BAY PARADISE,BARHAM EAST @ APOLLO,.000,ARB,43.00000,54,728101.000,5707121.000,UTM,-38.755023960,143.624973050,WGS84,9,.000,1,Y,N,1,1977-10-12,NULL,235
235234,LOVE CREEK @ GELLIBRAND,LOVE @ GELLIBRAND,90.924,AHD,75.00000,54,724325.000,5737426.000,UTM,-38.483162250,143.571792410,WGS84,9,.000,1,Y,Y,1,1979-05-02,NULL,235
235237,SCOTTS CREEK @ CURDIE (DIGNEYS BRIDGE),SCOTTS @ CURDIE,6.827,AHD,361.00000,54,673554.000,5742621.000,UTM,-38.447706040,142.988810800,WGS84,9,.000,1,Y,Y,1,1982-04-27,NULL,235
235239,TEN MILE CREEK @ KAWARREN,TEN MILE @ KAWARREN,.000,NULL,11.00000,54,726617.000,5739959.000,UTM,-38.459778300,143.597225600,WGS84,9,.000,1,N,N,1,1985-04-17,NULL,235
235240,YAHOO CREEK @ KAWARREN,YAHOO @ KAWARREN,.000,ARB,15.00000,54,725196.300,5737752.800,NULL,-38.480000000,143.581666700,NULL,1,.000,1,N,N,1,1985-03-25,NULL,235
235249,WEST GELLIBRAND RESERVOIR @ SPILLWAY,W GELLIBRAND SPILL'Y,339.999,AHD,.00000,54,731067.000,5724368.000,UTM,-38.598993140,143.653329420,WGS84,9,.000,0,Y,N,1,1999-06-21,NULL,235
235250,OLANGOLAH WEIR @ SPILLWAY,OLANGOLAH WEIR,.000,GAU,.00000,54,733535.000,5722851.000,UTM,-38.612003470,143.682149330,WGS84,9,.000,0,Y,N,1,1999-06-22,NULL,235
235255,THOMPSON CREEK @ GHAZEEPORE,THOMPSON C GHAZEEPOR,.000,ARB,184.00000,55,263241.000,5760738.000,UTM,-38.270087940,144.293635770,WGS84,9,.000,1,Y,N,1,1994-07-26,NULL,235
235256,ST. GEORGE RIVER @ ALLENVALE RESERVOIR (H.G.),ALLENVALE RES H.G.,.000,AHD,.00000,54,756682.000,5730371.000,UTM,-38.537930690,143.944914320,WGS84,9,.000,0,Y,N,1,1999-03-26,NULL,235
235257,PAINKALAC CREEK @ U/S PAINKALAC DAM,PAINKALAC DAM,.000,GAU,.00000,55,242163.000,5741639.000,UTM,-38.436183680,144.045997250,WGS84,9,.000,0,Y,N,1,1999-03-25,NULL,235
235258,GELLIBRAND RIVER D/S SOUTH OTWAY PUMPS BRIDGE,GELLIBRAND R OTWAY,.000,GAU,.00000,54,697075.000,5721317.000,ANG,-38.634665010,143.264172200,AGD66,1,.000,1,N,N,1,1998-01-08,NULL,235
235260,ANGLESEA RIVER (MARSHY CREEK) @ ALCOA,NULL,NULL,NULL,NULL,55,253092.000,5747162.000,MGA94,-38.389691603,144.172988764,GDA94,NULL,.000,NULL,N,N,1,2009-09-02,NULL,235
235264,PAIKALAC CREEK @ PAINKALAC RES. H.G.,PAINKALAC RES HG,.000,AHD,.00000,55,244038.000,5740993.000,UTM,-38.442537290,144.067217270,WGS84,9,.000,0,Y,N,1,2003-12-10,NULL,235
235265,MARINGO BASIN @ MARINGO RES. H.G.,MARINGO BASIN H.G.,.000,NULL,.00000,54,730692.000,5704358.000,UTM,-38.779223240,143.655683090,WGS84,9,.000,1,Y,N,1,2002-05-01,NULL,235
235266,GELLIBRAND RIVER D/S WEST GELLIBRAND DAM,GELLIBRAND R D/S DAM,.000,ARB,.00000,54,731200.000,5725047.000,UTM,-38.592845990,143.654629840,WGS84,9,.000,0,Y,N,1,2004-09-30,NULL,235
235267,OLANGOLAH CREEK D/S OLANGOLAH RESERVOIR,OLANGOLAH C D/S RES.,.000,ARB,.00000,54,733398.000,5723139.000,UTM,-38.609446930,143.680480950,WGS84,9,.000,1,Y,N,1,2004-09-30,NULL,235
235268,CURDIES RIVER @ PETERBOROUGH,CURDIES @ PETERB'RGH,.000,ARB,.00000,54,662313.000,5729965.000,UTM,-38.563818090,142.862997350,WGS84,9,5.000,9,Y,N,1,2008-10-03,NULL,235
235269,GELLIBRAND RIVER @ PRINCETOWN,GELLIBRAND @ PRNCTWN,.000,AHD,.00000,54,687424.000,5714665.000,UTM,-38.696662210,143.155163290,WGS84,9,3.000,9,Y,N,1,2008-11-01,NULL,235
235270,UPPER ANGLESEA RIVER (V-NOTCH) @ AARC,NULL,NULL,NULL,NULL,55,247044.000,5753546.000,MGA94,-38.330540568,144.106112470,GDA94,NULL,.000,NULL,N,N,1,2009-07-22,NULL,235
235271,UPPER ANGLESEA RIVER (POOL) @ AARC,NULL,NULL,NULL,NULL,55,246682.000,5753606.000,MGA94,-38.329898291,144.101997509,GDA94,NULL,.000,NULL,N,N,1,2009-08-07,NULL,235
235272,ANGLESEA WETLANDS @ ALLARDYLE TRACK,NULL,NULL,NULL,NULL,55,253041.000,5748034.000,MGA94,-38.381828384,144.172711320,GDA94,NULL,.000,NULL,N,N,1,2009-09-04,NULL,235
235273,BREAKFAST CREEK @ BRIDGE ON BREAKFAST CREEK ROAD,NULL,NULL,NULL,NULL,55,243434.000,5747656.000,MGA94,-38.382527499,144.062719945,GDA94,NULL,.000,NULL,N,N,1,2009-07-20,NULL,235
235274,BREAKFAST CREEK TRIBUTARY @ V-NOTCH,NULL,NULL,NULL,NULL,55,242895.000,5748151.000,MGA94,-38.377917585,144.056737446,GDA94,NULL,.000,NULL,N,N,1,2009-10-02,NULL,235
235275,SALT CREEK (POOL) ABOVE SWAMP @ DENHAM TRACK,NULL,NULL,NULL,NULL,55,245571.000,5746837.000,MGA94,-38.390509250,144.086859941,GDA94,NULL,.000,NULL,N,N,1,2009-09-04,NULL,235
235276,SALT CREEK @ DENHAMS TRACK,NULL,NULL,NULL,NULL,55,245536.000,5746838.000,MGA94,-38.390490293,144.086460042,GDA94,NULL,.000,NULL,N,N,1,2010-06-18,NULL,235
235277,ANGLESEA RIVER @ GUMFLATS ROAD,NULL,NULL,NULL,NULL,55,250783.000,5751988.000,MGA94,-38.345611773,144.148288202,GDA94,NULL,.000,NULL,N,N,1,2010-05-26,NULL,235
235278,ANGLESEA RIVER @ GREAT OCEAN ROAD BRIDGE,ANGLESEA R GR OCEAN,NULL,NULL,NULL,55,254291.000,5745475.000,UTM,-38.405074090,144.186127900,GDA94,NULL,.000,NULL,Y,N,1,2011-10-14,NULL,235
235279,APOLLO BAY BASIN,APOLLO BAY BASIN,NULL,NULL,NULL,54,730560.300,5705922.900,UTM,-38.765170460,143.653646200,GDA94,NULL,.000,NULL,N,N,1,2014-05-19,NULL,235
235280,ANGLESEA SWAMP @ VEGETATION SITE P7 TRANSECT,NULL,NULL,NULL,NULL,55,252903.000,5750702.000,MGA94,-38.357774750,144.172068731,GDA94,NULL,.000,NULL,N,N,1,2016-05-20,NULL,235
235282,CURDIES RIVER AT COBDEN-STONEYFORD ROAD,CURDIES RV COBDEN RD,NULL,NULL,NULL,54,687219.597,5753908.432,MGA94,-38.343423000,143.142320000,GDA94,NOT,.000,NOT,N,N,1,2017-12-15,NULL,235
235283,Aire River @ Horden Vale,Aire R @ Horden,NULL,NULL,NULL,54,715159.081,5702271.923,UTM,-38.802064872,143.477696176,GDA94,GPS,2.074,GPS,Y,N,1,2020-06-30,NULL,235
235600,LAKE PURRUMBETE @ CAMPERDOWN,LAKE PURRUMBETE,15.000,ARB,.00000,54,694176.657,5759379.485,UTM,-38.292539000,143.220358000,WGS84,9,.000,1,Y,N,1,1965-07-22,NULL,235
235801,RAIN GAUGE @ AV2,NULL,NULL,NULL,NULL,55,253085.000,5747168.000,MGA94,-38.389635663,144.172910811,GDA94,NULL,.000,NULL,N,N,1,2016-01-12,NULL,235
235805,RAIN GAUGE @ AARC,NULL,NULL,NULL,NULL,55,246908.000,5752852.000,MGA94,-38.336748770,144.104309632,GDA94,NULL,.000,NULL,N,N,1,2010-06-03,NULL,235
235806,RAIN GAUGE @ BREAKFAST CREEK,NULL,NULL,NULL,NULL,55,243333.000,5747488.000,MGA94,-38.384010605,144.061503832,GDA94,NULL,.000,NULL,N,N,1,2010-06-22,NULL,235
236202,HOPKINS RIVER @ WICKLIFFE,HOPKINS @ WICKLIFFE,197.623,AHD,1347.00000,54,652038.000,5826564.000,UTM,-37.695420790,142.724511900,WGS84,9,.000,1,Y,N,1,1920-06-10,NULL,236
236203,MOUNT EMU CREEK @ SKIPTON,MOUNT EMU @ SKIPTON,270.480,NULL,1251.00000,54,708099.000,5826199.000,UTM,-37.687698560,143.360067370,WGS84,9,.000,1,Y,N,1,1920-06-15,NULL,236
236204,FIERY CREEK @ STREATHAM,FIERY @ STREATHAM,236.221,AHD,956.00000,54,682157.644,5827608.817,UTM,-37.680520000,143.065700000,WGS84,9,.000,1,Y,N,1,1920-06-04,NULL,236
236205,MERRI RIVER @ WOODFORD,MERRI @ WOODFORD,.000,GAU,899.00000,54,629661.000,5757969.000,UTM,-38.316882580,142.483079700,WGS84,9,12.000,9,Y,Y,1,1948-08-01,NULL,236
236209,HOPKINS RIVER @ HOPKINS FALLS,HOPKINS @ HOPKINS F.,.000,ARB,8355.00000,54,642039.000,5755706.000,UTM,-38.335437320,142.625191100,WGS84,9,.000,1,Y,Y,1,1955-05-23,NULL,236
236210,HOPKINS RIVER @ FRAMLINGHAM,HOPKINS @FRAMLINGHAM,.000,ARB,5157.00000,54,649033.000,5765747.000,UTM,-38.243794220,142.703020200,WGS84,9,.000,1,Y,N,1,1955-06-10,NULL,236
236212,BRUCKNELL CREEK @ CUDGEE,BRUCKNELL @ CUDGEE,14.146,AHD,223.00000,54,644355.000,5754492.000,UTM,-38.345967710,142.651916270,WGS84,9,.000,1,Y,N,1,1965-06-04,NULL,236
236213,MOUNT EMU CREEK @ MENA PARK,MOUNT EMU @MENA PARK,.000,AHD,452.00000,54,717827.356,5843415.887,UTM,-37.530400000,143.465180000,WGS84,9,.000,1,Y,N,1,1966-12-14,NULL,236
236215,BURRUMBEET CREEK @ LAKE BURRUMBEET,BURRUMBEET @ LAKE,.000,ARB,166.00000,54,736437.945,5843559.980,UTM,-37.524520000,143.675550000,WGS84,9,.000,1,N,Y,1,1975-12-03,NULL,236
236216,MOUNT EMU CREEK @ TAROON (AYRFORD ROAD BRIDGE),MOUNT EMU @ TAROON,93.358,AHD,2877.00000,54,664494.000,5758581.000,UTM,-38.305592150,142.881290200,WGS84,9,.000,1,Y,Y,1,1977-10-10,NULL,236
236219,HOPKINS RIVER @ ARARAT,HOPKINS R @ ARARAT,.000,ARB,258.00000,54,672030.892,5868315.530,UTM,-37.315772000,142.941403000,WGS84,9,.000,1,Y,N,1,1989-05-31,NULL,236
236228,MUSICAL GULLY CREEK @ MUSICAL GULLY RESERVOIR H.G.,MUSICAL GULLY RES.,NULL,NULL,NULL,54,710646.000,5860529.000,UTM,-37.377949250,143.379083600,WGS84,9,445.000,9,N,N,1,2009-06-25,NULL,236
236230,LONG GULLY CREEK @ THE GLUT,LONG GULLY CK @ GLUT,NULL,NULL,NULL,54,700465.000,5869999.000,ANG,-37.294911360,143.261621000,AGD66,1,.000,1,N,N,1,2000-05-30,NULL,236
236231,CAVE HILL CREEK @ MOUNT COLE,CAVE HILL CK MT COLE,NULL,NULL,NULL,54,701225.401,5868941.712,ANG,-37.304270000,143.270480000,WGS84,1,.000,1,N,N,1,2000-05-30,NULL,236
236232,SIDESPRING CREEK @ MT COLE,SIDESPRING CK,NULL,NULL,NULL,54,701045.000,5870384.000,MGA94,-37.291318530,143.268055700,GDA94,1,.000,1,N,N,1,2007-11-26,NULL,236
236238,MT EMU CREEK @ GUTHRIES BRIDGE,MT EMU @ GUTHRIES B,NULL,NULL,NULL,54,719053.359,5830630.817,MGA94,-37.645370000,143.482880000,GDA94,NULL,.000,NULL,NULL,NUL,1,2018-06-05,NULL,236
236600,LAKE BOLAC @ LAKE BOLAC,LAKE BOLAC,.000,ARB,.00000,54,664276.000,5820577.000,UTM,-37.747243440,142.864610100,WGS84,9,.000,1,Y,N,1,1962-11-06,NULL,236
236602,LAKE BURRUMBEET @ BURRUMBEET,LAKE BURRUMBEET,.000,AHD,.00000,54,735938.350,5847338.144,ANG,-37.490630000,143.668690000,WGS84,1,.000,1,n,Y,1,1965-06-28,NULL,236
236603,LAKE GOLDSMITH @ BEAUFORT,LAKE GOLDSMITH @ BEA,340.270,AHD,.00000,54,708565.000,5840451.000,UTM,-37.559242630,143.361282600,WGS84,9,.000,1,Y,N,1,1965-07-19,NULL,236
236606,LAKE BUNINJON @ CALVERT,LAKE BUNINJON @ CALV,.000,NULL,.00000,54,658600.477,5850365.472,UTM,-37.479880000,142.793760000,WGS84,9,.000,1,N,Y,1,1991-06-26,NULL,236
236610,CHINAMAN SWAMP @ WESTMERE,CHINAMAN SWAMP @ WES,.000,ARB,.00000,54,677153.561,5826519.776,UTM,-37.691310000,143.009250000,WGS84,9,.000,1,Y,N,1,1995-10-04,NULL,236
236611,MYUNA LANE SWAMP @ WOORNDOO,MYUNA LANE SWAMP @ W,.000,ARB,.00000,54,655284.000,5813221.000,UTM,-37.815083340,142.764167200,WGS84,9,.000,1,N,Y,1,1899-12-30,NULL,236
236805,Cave Hill Camp Rain Gauge @ Cave Hill,Cave Hill Camp RG,NULL,NULL,NULL,54,702325.689,5869088.071,AMG66VIC,-37.302713000,143.282846000,GDA94,GPS,.000,NOT,N,N,1,2019-06-28,NULL,236
237200,MOYNE RIVER @ TOOLONG,MOYNE @ TOOLONG,.000,ARB,570.00000,54,607213.000,5757970.000,UTM,-38.319910570,142.226428500,WGS84,9,.000,1,Y,Y,1,1948-06-02,NULL,237
237202,FITZROY RIVER @ HEYWOOD,FITZROY @ HEYWOOD,23.820,AHD,234.00000,54,554340.200,5780019.300,UTM,-38.125904160,141.619984010,WGS84,9,.000,1,Y,N,1,1948-07-29,NULL,237
237205,DARLOT CREEK @ HOMERTON BRIDGE,DARLOT @ HOMERTON,20.370,AHD,760.00000,54,567428.800,5777200.000,UTM,-38.150428000,141.769572000,WGS84,9,.000,1,Y,N,1,1963-01-10,NULL,237
237206,EUMERALLA RIVER @ CODRINGTON,EUMERALLA @ CODRINGT,9.962,AHD,502.00000,54,582617.000,5765175.000,UTM,-38.257471490,141.944362900,WGS84,9,.000,1,Y,N,1,1964-02-27,NULL,237
237207,SURRY RIVER @ HEATHMERE,SURRY @ HEATHMERE,1.983,AHD,310.00000,54,558037.000,5766952.000,UTM,-38.243436470,141.663214900,WGS84,9,.000,1,Y,Y,1,1970-04-20,NULL,237
237208,MOYNE RIVER @ WILLATOOK,MOYNE @ WILLATOOK,56.952,AHD,245.00000,54,610230.300,5774930.000,NULL,-38.166666670,142.258333300,NULL,1,.000,1,N,N,1,1974-05-20,1985-01-07 00:00:00.000,237
237221,Moyne River_Southern Ocean @ Gipps Street Bridge,Moyne R @ Sth Ocean,NULL,NULL,NULL,54,608426.395,5751225.232,,-38.380472960,142.241376500,NULL,NULL,.000,NULL,N,N,1,2021-03-31,NULL,237
237801,Raingauge @ Gerrigerup,RG @ Gerrigerup,NULL,NULL,NULL,54,606867.936,5792703.984,NULL,-38.006915383,142.217299239,NULL,NULL,.000,NULL,N,N,1,2020-11-25,NULL,237
238202,GLENELG RIVER @ SANDFORD,GLENELG @ SANDFORD,32.799,AHD,9420.00000,54,537881.000,5836356.000,UTM,-37.619030010,141.429087300,WGS84,9,.000,1,Y,Y,1,1889-04-01,NULL,238
238204,WANNON RIVER @ DUNKELD,WANNON @ DUNKELD,219.734,AHD,671.00000,54,617891.753,5834262.310,UTM,-37.631080000,142.336070000,WGS84,9,.000,1,Y,Y,1,1920-06-09,NULL,238
238205,GLENELG RIVER @ ROCKLANDS RESERVOIR,GLENELG @ ROCKLANDS,.000,AHD,1355.00000,54,584600.000,5878461.000,UTM,-37.236409600,141.953763100,WGS84,9,.000,1,Y,N,1,1941-03-21,NULL,238
238206,GLENELG RIVER @ DARTMOOR,GLENELG R DARTMOOR,.000,GAU,11914.00000,54,524714.500,5802486.400,UTM,-37.924712190,141.281206350,WGS84,9,.000,0,Y,Y,1,1948-06-01,NULL,238
238207,WANNON RIVER @ JIMMY CREEK,WANNON @ JIMMY,300.423,AHD,40.00000,54,633083.987,5862845.031,UTM,-37.371460000,142.503020000,WGS84,9,.000,1,Y,N,1,1950-01-26,NULL,238
238208,JIMMY CREEK @ JIMMY CREEK,JIMMY @ JIMMY,308.217,ARB,23.00000,54,633549.118,5862686.679,UTM,-37.372820000,142.508300000,WGS84,9,.000,1,Y,Y,1,1950-01-25,NULL,238
238210,GLENELG RIVER @ HARROW,GLENELG HARROW B EC,.000,NULL,.00000,54,552365.993,5886006.015,UTM,-37.170771000,141.589857000,WGS84,9,.000,1,Y,N,1,1957-08-01,NULL,238
238211,GLENELG RIVER @ DERGHOLM,GLENELG R @ DERGHOLM,.000,ARB,.00000,54,521490.000,5864410.000,UTM,-37.366710270,141.242751500,WGS84,9,.000,1,Y,N,1,1957-05-01,NULL,238
238212,GLENELG RIVER @ CASTERTON,GLENELG @ CASTERTON,38.453,AHD,4810.00000,54,536100.000,5840417.000,UTM,-37.582425920,141.408943700,WGS84,9,.000,1,N,Y,1,1956-08-29,NULL,238
238218,WANNON RIVER @ WANNON FALLS,WANNON @ WANNON FALL,119.106,AHD,2243.00000,54,574137.000,5830011.000,UTM,-37.673967870,141.840691600,WGS84,9,.000,1,Y,N,1,1963-07-09,NULL,238
238219,GRANGE BURN @ MORGIANA,GRANGE @ MORGIANA,74.415,AHD,997.00000,54,573385.000,5826157.000,UTM,-37.708762080,141.832553210,WGS84,9,.000,1,Y,N,1,1963-07-08,NULL,238
238220,DUNDAS RIVER @ CAVENDISH,DUNDAS @ CAVENDISH,195.609,AHD,211.00000,54,588684.000,5846372.000,UTM,-37.525301920,142.003658400,WGS84,9,.000,1,Y,N,1,1963-07-11,NULL,238
238223,WANDO RIVER @ WANDO VALE,WANDO @ WANDO VALE,64.488,AHD,174.00000,54,537665.000,5849998.000,UTM,-37.495953220,141.425961200,WGS84,9,.000,1,Y,Y,1,1964-04-15,NULL,238
238224,GLENELG R @ FULHAM BRIDGE,GLENELG R FULHAM BR,.000,NULL,2010.00000,54,575506.005,5888371.000,UTM,-37.147871000,141.850248000,WGS84,9,.000,1,Y,Y,1,1964-03-06,NULL,238
238228,WANNON RIVER @ HENTY,WANNON @ HENTY,44.799,AHD,4159.00000,54,544605.000,5833425.000,UTM,-37.645127000,141.505614800,WGS84,9,.000,1,Y,Y,1,1967-02-27,NULL,238
238229,CHETWYND RIVER @ CHETWYND,CHETWYND @ CHETWYND,.000,ARB,69.00000,54,542610.000,5869362.000,UTM,-37.321463290,141.480741200,WGS84,9,.000,1,Y,N,1,1967-03-30,NULL,238
238230,STOKES RIVER @ TEAKETTLE,STOKES @ TEAKETTLE,51.993,AHD,181.00000,54,536058.000,5808553.000,UTM,-37.869674050,141.409957700,WGS84,9,.000,1,Y,N,1,1966-06-27,NULL,238
238231,GLENELG RIVER @ BIG CORD,GLENELG @ BIG CORD,243.268,AHD,57.00000,54,621153.207,5869594.944,UTM,-37.312270000,142.367210000,WGS84,9,.000,1,Y,Y,1,1968-04-23,NULL,238
238235,CRAWFORD RIVER @ LOWER CRAWFORD,CRAWFORD @ CRAWFORD,.000,ARB,606.00000,54,539946.000,5796301.000,UTM,-37.980071410,141.454637400,WGS84,9,.000,1,Y,N,1,1970-05-25,NULL,238
238236,GLENELG RIVER @ ROCKLANDS RESERVOIR (HEAD GAUGE),GLENELG @ ROCKLANDS,.826,AHD,1355.00000,54,585066.700,5878668.200,MGA94,-37.234500000,141.959000000,GDA94,1,.000,1,N,n,1,1947-04-02,NULL,238
238237,MOORA MOORA CREEK @ MOORA MOORA RESERVOIR (H. GAUGE),MOORA MOORA CREEK,.000,AHD,.00000,54,625143.575,5879694.677,UTM,-37.220730000,142.410530000,WGS84,9,.000,1,Y,Y,1,1934-01-01,NULL,238
238249,GLENELG RIVER D/S BURKES BRIDGE,GLENELG R D/S BURKES,.000,GAU,3375.00000,54,530415.000,5878653.000,UTM,-37.238041310,141.342926200,WGS84,9,.000,0,Y,N,1,2001-05-18,NULL,238
238257,Glenelg River @ Weavers,Glenelg @ Weavers,NULL,NULL,NULL,54,576972.488,5876884.732,NULL,-37.251277780,141.867944440,,NULL,.000,9,N,N,1,2019-05-31,NULL,238
238266,Muddy Creek @ Henty Highway,Muddy Ck @ Henty Hwy,NULL,NULL,NULL,54,584763.875,5818940.394,MGA94,-37.772947000,141.962478000,GDA94,NOT,.000,NOT,Y,N,1,2021-01-14,NULL,238
238600,LAKE LINLITHGOW @ PENHURST,L. LINLITHGOW,189.893,AHD,.00000,54,606932.000,5819246.000,UTM,-37.767737560,142.214094800,WGS84,9,.000,1,Y,Y,1,1964-03-26,NULL,238
238601,BRADY SWAMP @ GLENTHOMPSON,BRADY SWAMP @ GLENTH,.000,ARB,.00000,54,628226.000,5836783.000,UTM,-37.606983030,142.452713000,WGS84,9,.000,1,Y,N,1,1964-03-25,NULL,238
238604,BRYANS SWAMP @ VICTORIA VALLEY,BRYANS SWAMP @ VICTO,.000,ARB,.00000,54,611287.000,5840964.000,UTM,-37.571512920,142.260216100,WGS84,9,.000,1,Y,N,1,1995-10-04,NULL,238
238700,ROCKLANDS CHANNEL @ ROCKLANDS RESERVOIR,ROCKLANDS CHANNEL,.000,ARB,.00000,54,584965.000,5878695.000,UTM,-37.234267400,141.957850800,WGS84,9,.000,1,Y,N,1,1951-01-01,NULL,238
238702,MOORA OUTLET CHANNEL @ MOORA RESERVOIR,MOORA OUTLET CHANNEL,.000,AHD,.00000,54,625032.480,5879147.022,UTM,-37.225680000,142.409370000,WGS84,9,.000,1,Y,N,1,1966-01-01,NULL,238
238707,ROCKLANDS CHANNEL @ TOOLONDO LAKE INLET,ROCKLANDS @ TOOLONDO,.000,ARB,.00000,54,583707.000,5905630.000,UTM,-36.991616000,141.940662600,WGS84,9,.000,1,Y,N,1,1992-03-05,NULL,238
238711,ROCKLANDS CHANNEL OUTFALL @ MT TALBOT CREEK,ROCKLANDS CH O/FALL,.000,ARB,.00000,54,587322.000,5901105.000,UTM,-37.032071220,141.981805600,WGS84,9,.000,1,Y,N,1,1994-07-05,NULL,238
238716,MOORA CHANNEL @ BRIMPAEN,MOORA CH AT BRIMPAEN,.000,ARB,.00000,54,610600.243,5892848.080,UTM,-37.104030000,142.244700000,WGS84,9,.000,1,Y,N,1,2007-06-08,NULL,238
238720,Moora Channel @ Brimpean - Laharum Rd,Moora Ch @ Brimpean,NULL,NULL,NULL,54,612621.409,5900260.249,NULL,-37.036990000,142.266330000,NULL,NULL,.000,NULL,N,N,1,2019-11-01,2021-10-01 00:00:00.000,238
238802,WEATHER STATION @ ROCKLANDS RESERVOIR,ROCKLANDS RES W.S.,NULL,NULL,NULL,54,585114.000,5878756.000,UTM,-37.233704030,141.959523380,GDA94,NULL,.000,NULL,Y,N,1,2009-03-26,NULL,238
239201,LAKE CHARLEGRARK (HEAD GAUGE) @ BOOROOPKI,LAKE CHARLEGRARK (HE,.000,AHD,.00000,54,521120.000,5931005.000,UTM,-36.766362910,141.236644100,WGS84,9,.000,1,Y,N,1,1977-05-15,NULL,239
401201,MURRAY RIVER @ JINGELLIC,MURRAY @ JINGELLIC,206.520,AHD,6527.00000,55,564182.035,6023411.027,NULL,-35.931414000,147.711500000,WGS84,1,.000,1,Y,Y,1,1890-05-01,NULL,401
401202,MITTA MITTA RIVER @ MITTA MITTA,MITTA @ MITTA MITTA,.000,AHD,3786.00000,55,533685.000,5956800.000,UTM,-36.533473950,147.376162300,WGS84,9,.000,1,Y,N,1,1917-11-25,NULL,401
401203,MITTA MITTA RIVER @ HINNOMUNJIE,MITTA @ HINNOMUNJIE,538.386,AHD,1533.00000,55,553931.000,5910937.000,UTM,-36.945958970,147.605695500,WGS84,9,556.000,1,Y,Y,1,1925-06-17,NULL,401
401204,MITTA MITTA RIVER @ TALLANDOON,MITTA @ TALLANDOON,216.893,AHD,4716.00000,55,520728.000,5970808.000,UTM,-36.407522320,147.231223800,WGS84,9,.000,1,Y,Y,1,1934-07-01,NULL,401
401208,CUDGEWA CREEK @ BERRINGAMA,CUDGEWA @ BERRINGAMA,366.249,AHD,350.00000,55,560930.000,5992314.000,UTM,-36.211877830,147.677740700,WGS84,9,.000,1,Y,N,1,1953-04-15,NULL,401
401210,SNOWY CREEK @ BELOW GRANITE FLAT,SNOWY @ GRANITE FLAT,309.977,AHD,407.00000,55,536981.000,5952908.000,UTM,-36.568527330,147.413380700,WGS84,9,.000,1,Y,N,1,1932-10-10,NULL,401
401211,MITTA MITTA RIVER @ COLEMANS,MITTA @ COLEMANS,290.777,AHD,3634.00000,55,540881.000,5957029.000,UTM,-36.531228010,147.456557700,WGS84,9,.000,1,Y,Y,1,1931-02-21,NULL,401
401212,NARIEL CREEK @ UPPER NARIEL,NARIEL @UPPER NARIEL,494.097,AHD,252.00000,55,574333.000,5966348.000,UTM,-36.445000120,147.829492900,WGS84,9,.000,1,Y,Y,1,1954-04-13,NULL,401
401215,MORASS CREEK @ UPLANDS,MORASS CK @ UPLANDS,672.978,AHD,471.00000,55,562706.000,5919723.000,UTM,-36.866219710,147.703513200,WGS84,9,705.000,1,Y,Y,1,1929-10-18,NULL,401
401216,BIG RIVER @ JOKERS CREEK,BIG R @ JOKERS CREEK,683.564,AHD,356.00000,55,542051.000,5912473.000,UTM,-36.932718710,147.472191300,WGS84,9,720.000,1,Y,Y,1,1934-08-29,NULL,401
401217,GIBBO RIVER @ GIBBO PARK,GIBBO @ GIBBO PARK,490.080,AHD,389.00000,55,563310.000,5931879.000,UTM,-36.756605340,147.709277500,WGS84,9,518.000,1,Y,N,1,1971-07-26,NULL,401
401220,TALLANGATTA CREEK @ McCALLUMS,TALLANGATTA MCALLUMS,209.925,AHD,464.00000,55,530132.000,5992330.000,UTM,-36.213291290,147.335251400,WGS84,9,.000,1,Y,N,1,1975-06-10,NULL,401
401222,MITTA MITTA RIVER @ BOWLERS LANE,MITTA @ BOWLERS LANE,.000,AHD,4328.00000,55,529816.000,5964124.000,UTM,-36.467576170,147.332793600,WGS84,9,.000,1,Y,N,1,1977-10-20,NULL,401
401223,MITTA MITTA RIVER @ ESKDALE BRIDGE,MITTA @ ESKDALE BR.,.000,AHD,4374.00000,55,523964.000,5965721.000,UTM,-36.453334270,147.267427300,WGS84,9,.000,1,Y,N,1,1977-10-18,NULL,401
401224,MITTA MITTA RIVER @ LAKE DARTMOUTH (HEAD GAUGE),MITTA @ DART. HEAD,.000,AHD,3561.00000,55,547396.000,5954114.000,UTM,-36.557096410,147.529622430,WGS84,9,451.000,1,Y,Y,1,1977-11-07,NULL,401
401226,VICTORIA RIVER @ VICTORIA FALLS,VICTORIA @ V. FALLS,.000,ARB,180.00000,55,540698.000,5895250.000,UTM,-37.088027870,147.457929300,WGS84,9,962.000,1,Y,Y,1,1989-05-02,NULL,401
401228,BUTCHER CREEK @ OMEO,BUTCHER @ OMEO,.000,ARB,22.00000,55,546150.000,5883554.000,UTM,-37.193200690,147.519993580,WGS84,1,.000,1,N,N,1,1991-06-04,NULL,401
401229,CUDGEWA CREEK @ CUDGEWA NORTH,CUDGEWA @CUDGEWA NTH,241.826,AHD,837.00000,55,579163.000,6008414.000,UTM,-36.065510930,147.879057130,WGS84,9,.000,1,Y,N,1,1993-08-18,NULL,401
401230,CORRYONG CREEK @ TOWONG,CORRYONG @ TOWONG,243.477,AHD,976.00000,55,587516.000,6003786.000,UTM,-36.106476760,147.972447200,WGS84,9,.000,1,Y,N,1,1993-08-17,NULL,401
401231,SNOWY CREEK @ D/S LIGHTNING CK,SNOWY DS LIGHTNING,.000,ARB,105.00000,55,538721.000,5942665.000,UTM,-36.660661540,147.433174400,WGS84,9,.000,1,Y,N,1,1993-04-21,NULL,401
401233,MITTA MITTA R @ SURGE DAM NO 1 DARTMOUTH,MITTA MITTA R DAM 1,318.002,AHD,.00000,55,544740.000,5954667.000,UTM,-36.552239400,147.499912130,WGS84,9,.000,0,Y,N,1,2001-01-30,NULL,401
401822,RG @ Benambra,RG @ Benambra,NULL,NULL,NULL,55,568882.343,5911383.424,NULL,-36.940960000,147.773560000,NULL,NULL,.000,NULL,Y,N,1,2021-03-26,NULL,401
401824,RAINGAUGE (MORASS CK) @ UPLANDS,RG MORASS CK UPLANDS,.000,NULL,.00000,55,562517.000,5919515.000,UTM,-36.868107140,147.701410000,WGS84,9,690.000,9,Y,N,1,2006-07-21,NULL,401
401825,RAIN GAUGE (NARIEL CK) @ UPPER NARIEL,R.G. NARIEL CK,.000,NULL,.00000,55,574192.000,5965869.000,UTM,-36.449428510,147.827899730,WGS84,9,528.000,9,Y,N,1,2008-04-17,NULL,401
402200,KIEWA RIVER @ KIEWA (COMBINED FLOW),KIEWA @ KIEWA,171.219,AHD,1145.00000,55,501811.100,5987867.800,MGA94,-36.253970000,147.020160000,GDA94,1,.000,1,Y,N,1,1885-07-01,NULL,402
402203,KIEWA RIVER @ MONGANS BRIDGE,KIEWA @ MONGANS BR,256.812,AHD,552.00000,55,508971.000,5950005.000,UTM,-36.595372380,147.100362600,WGS84,9,263.000,1,Y,Y,1,1955-04-29,NULL,402
402204,YACKANDANDAH CREEK @ OSBORNES FLAT,YACKANDANDAH OSBORNE,210.839,AHD,255.00000,55,491635.000,5982251.000,UTM,-36.304573970,146.906827900,WGS84,9,.000,1,Y,Y,1,1964-11-01,NULL,402
402205,KIEWA RIVER @ BANDIANA,KIEWA @ BANDIANA,153.229,AHD,1655.00000,55,495866.000,6000768.000,UTM,-36.137705100,146.954151900,WGS84,9,161.000,9,Y,Y,1,1965-10-19,NULL,402
402206,RUNNING CREEK @ RUNNING CREEK,RUNNING @ RUNNING,246.364,AHD,126.00000,55,503957.000,5956216.000,UTM,-36.539314770,147.044207200,WGS84,9,.000,1,Y,N,1,1966-04-14,NULL,402
402213,KINCHINGTON CREEK @ OSBORNES FLAT,KINCHINGTON @ OSBORN,221.455,AHD,122.00000,55,490502.000,5980963.000,UTM,-36.316175340,146.894192540,WGS84,9,.000,1,Y,N,1,1969-04-17,NULL,402
402220,KIEWA RIVER @ KIEWA (ANABRANCH),KIEWA @ KIEWA (ANA),170.604,AHD,1145.00000,55,501344.000,5987716.000,UTM,-36.255339680,147.014960500,WGS84,9,.000,1,Y,N,1,1937-01-01,NULL,402
402222,KIEWA RIVER @ KIEWA (MAIN STREAM),KIEWA @ KIEWA MAIN,170.219,AHD,1145.00000,55,501841.000,5987915.000,UTM,-36.253544770,147.020492300,WGS84,9,.000,1,Y,Y,1,1937-01-01,NULL,402
402223,KIEWA RIVER WEST BRANCH @ U/S OF OFFTAKE,KIEWA WEST @ OFFTAKE,.000,ARB,100.50000,55,514278.000,5928248.000,UTM,-36.791344210,147.160033250,WGS84,9,.000,1,Y,Y,1,1991-05-01,NULL,402
403200,OVENS RIVER @ WANGARATTA,OVENS @ WANGARATTA,130.426,AHD,5138.00000,55,439072.000,5976940.000,UTM,-36.350660810,146.320935800,WGS84,9,144.000,9,Y,N,1,1885-06-28,NULL,403
403205,OVENS RIVERS @ BRIGHT,OVENS @ BRIGHT,290.704,AHD,495.00000,55,495759.000,5935531.000,UTM,-36.725643660,146.952595400,WGS84,9,293.000,9,Y,Y,1,1924-12-10,NULL,403
403209,REEDY CREEK @ WANGARATTA NORTH,REEDY @ WANGARATTA,137.636,AHD,368.00000,55,441170.000,5979000.000,UTM,-36.332121920,146.344506080,WGS84,9,.000,1,Y,N,1,1940-06-01,NULL,403
403210,OVENS RIVER @ MYRTLEFORD,OVENS @ MYRTLEFORD,204.665,AHD,1240.00000,55,474760.000,5952641.000,UTM,-36.571218100,146.717905660,WGS84,9,210.000,9,Y,Y,1,1947-10-22,NULL,403
403213,FIFTEEN MILE CREEK @ GRETA SOUTH,15 MILE @ GRETA STH,187.290,AHD,229.00000,55,432425.000,5947075.000,UTM,-36.619457750,146.244072140,WGS84,9,197.000,1,Y,Y,1,1958-12-15,NULL,403
403214,HAPPY VALLEY CREEK @ ROSEWHITE,HAPPY @ ROSEWHITE,252.508,AHD,135.00000,55,483907.000,5951975.000,UTM,-36.577465150,146.820066400,WGS84,9,236.000,1,Y,N,1,1961-06-28,NULL,403
403217,ROSE RIVER @ MATONG NORTH,ROSE RV @ MATONG NTH,.000,ARB,154.00000,55,462756.000,5924929.000,UTM,-36.820638340,146.582396940,WGS84,9,.000,NULL,Y,Y,1,1962-08-09,NULL,403
403218,DANDONGADALE RIVER @ MATONG NORTH,DANDONGADALE @MATONG,280.430,AHD,182.00000,55,467107.000,5926642.000,UTM,-36.805421530,146.631446400,WGS84,9,.000,1,Y,N,1,1962-08-10,NULL,403
403220,BUFFALO RIVER @ LAKE BUFFALO,BUFFALO @ BUFFALO,237.466,AHD,1145.00000,55,470391.560,5937054.016,UTM,-36.711606000,146.668481000,WGS84,9,243.000,1,Y,N,1,1963-09-25,NULL,403
403221,REEDY CREEK @ WOOLSHED,REEDY @ WOOLSHED,.000,ARB,214.00000,55,464196.000,5981476.000,UTM,-36.310931970,146.601172040,WGS84,9,237.000,1,Y,N,1,1964-11-11,NULL,403
403222,BUFFALO RIVER @ ABBEYARD,BUFFALO @ ABBEYARD,337.814,AHD,425.00000,55,473289.000,5914990.000,UTM,-36.910589350,146.700147900,WGS84,9,352.000,9,Y,N,1,1965-06-30,NULL,403
403223,KING RIVER @ DOCKER ROAD BRIDGE,KING @ DOCKER ROAD,155.004,AHD,1114.00000,55,445330.000,5958595.000,UTM,-36.516313300,146.389416470,WGS84,9,170.000,1,Y,Y,1,1966-01-13,NULL,403
403224,HURDLE CREEK @ BOBINAWARRAH,HURDLE @ BOBINAWARRA,165.919,AHD,158.00000,55,450671.000,5958971.000,UTM,-36.513241480,146.449144600,WGS84,9,167.000,1,Y,N,1,1966-04-19,NULL,403
403226,BOGGY CREEK @ ANGLESIDE,BOGGY @ ANGLESIDE,178.651,AHD,108.00000,55,442986.000,5948596.000,UTM,-36.606312470,146.362498700,WGS84,9,.000,1,Y,N,1,1967-02-27,NULL,403
403227,KING RIVER @ CHESHUNT,KING @ CHESHUNT,292.262,AHD,453.00000,55,446338.000,5923662.000,UTM,-36.831270320,146.398226400,WGS84,9,295.000,1,Y,N,1,1967-06-27,NULL,403
403228,KING RIVER @ LAKE WILLIAM HOVELL T.G.,WILLIAM HOVELL,371.033,AHD,332.00000,55,446106.000,5915032.000,UTM,-36.909048740,146.395011700,WGS84,9,.000,1,Y,N,1,1969-06-10,NULL,403
403230,OVENS RIVER @ ROCKY POINT,OVENS @ ROCKY POINT,190.555,AHD,2984.00000,55,470308.000,5956822.000,UTM,-36.533470700,146.668309500,WGS84,9,208.000,1,Y,Y,1,1965-06-24,NULL,403
403232,MORSES CREEK @ WANDILIGONG,MORSES @ WANDILIGONG,327.792,AHD,123.00000,55,498169.000,5932704.000,UTM,-36.751289390,146.979376100,WGS84,9,339.000,1,Y,N,1,1972-11-29,NULL,403
403233,BUCKLAND RIVER @ HARRIS LANE,BUCKLAND @ HARRIS,280.050,AHD,435.00000,55,489467.000,5936002.000,UTM,-36.721492920,146.882049100,WGS84,9,290.000,9,Y,N,1,1972-05-02,NULL,403
403234,KING RIVER @ LAKE WILLIAM HOVELL (HG),KING @ WILLIAM,.000,AHD,332.00000,55,445346.000,5914541.000,UTM,-36.913403370,146.386355800,WGS84,9,444.000,1,Y,Y,1,1971-04-28,NULL,403
403235,BUFFALO RIVER @ LAKE BUFFALO (HEAD GAUGE),BUFFALO @ BUFFALO,.000,AHD,1145.00000,55,469202.000,5936570.000,UTM,-36.715931400,146.655142480,WGS84,9,.000,1,Y,Y,1,1965-07-07,NULL,403
403240,KING RIVER @ EDI,KING @ EDI,188.254,AHD,684.00000,55,448165.000,5942725.000,UTM,-36.659532260,146.420008320,WGS84,9,206.000,1,Y,N,1,1979-06-15,NULL,403
403241,OVENS RIVER @ PEECHELBA,OVENS @ PEECHELBA,.000,AHD,6239.00000,55,431315.000,5997691.000,UTM,-36.162974880,146.236349340,WGS84,9,249.000,9,Y,Y,1,1979-03-08,NULL,403
403242,OVENS RIVER @ WANGARATTA (COMBINED FLOW),OVENS @ WANG.,137.689,AHD,5552.00000,55,439736.100,5976452.300,NULL,-36.355000000,146.328333300,NULL,1,.000,1,Y,N,1,1891-01-01,NULL,403
403244,OVENS RIVER @ HARRIETVILLE,OVENS @ HARRIETVILLE,481.602,AHD,120.00000,55,505562.326,5917970.886,UTM,-36.884080000,147.062420000,WGS84,9,.000,1,Y,Y,1,1987-02-04,NULL,403
403247,BLACK DOG CREEK UPSTREAM OF DUGAYS BRIDGE,BLACK DOG @ DUGAY BR,.000,ARB,.00000,55,438589.000,6007704.000,UTM,-36.073195210,146.317998440,WGS84,9,249.000,0,Y,N,1,1998-08-19,NULL,403
403248,INDIGO CREEK @ D/S CREAMERY BRIDGE,INDIGO @ CREAMERY BR,138.880,AHD,.00000,55,468416.000,6012728.000,UTM,-36.029255530,146.649458200,WGS84,9,143.000,0,Y,N,1,1999-05-28,NULL,403
403249,THREE MILE CREEK D/S YARRAWONGA RD @ WANGARATTA,3 MILE CK WANGARATTA,.000,ARB,463.00000,55,437172.000,5978480.000,UTM,-36.336565860,146.299898300,WGS84,9,149.000,0,Y,N,1,2000-05-12,NULL,403
403250,OVENS RIVER @ EUROBIN,OVENS R @ EUROBIN,.000,GAU,1082.00000,55,487225.000,5943668.000,UTM,-36.652357580,146.857070700,WGS84,9,260.000,9,Y,N,1,2000-07-19,NULL,403
403251,FIFTEEN MILE CREEK @ GLENROWAN,15 MILE CK GLENROWAN,.000,GAU,.00000,55,432467.000,5963552.000,UTM,-36.470807180,146.246199000,WGS84,9,.000,0,Y,N,1,2000-07-18,NULL,403
403253,BUCKLAND RIVER @ TWELVE MILE,BUCKLAND R @ 12 MILE,.000,GAU,.00000,55,487468.955,5921195.577,UTM,-36.854944000,146.859431000,WGS84,9,395.000,9,Y,N,1,2001-05-18,NULL,403
403254,BUFFALO RIVER D/S ROSE RIVER JUNCTION,BUFFALO R D/S ROSE R,266.760,AHD,902.50000,55,470132.000,5927807.000,UTM,-36.794956190,146.665212800,WGS84,9,288.000,9,Y,N,1,2001-09-10,NULL,403
403255,FIFTEEN MILE CREEK (THREE MILE) @ SUNSET DRIVE,15 MILE CK SUNSET DV,NULL,NULL,NULL,55,436578.000,5976906.000,UTM,-36.350707170,146.293174100,WGS84,9,.000,0,N,Y,1,2004-04-29,NULL,403
403256,ONE MILE CREEK @ VINCENT ROAD,ONE MILE C VINCENT R,NULL,NULL,NULL,55,439132.000,5975303.000,UTM,-36.365322770,146.321510600,WGS84,9,.000,0,N,Y,1,2004-04-29,NULL,403
403258,YARRARBULA CREEK U/S LAKE BUFFALO,YARRARBULA CK,NULL,NULL,NULL,55,472727.296,5931110.696,MGA94,-36.765380560,146.694419440,GDA94,NULL,.000,NULL,N,N,1,2017-04-27,NULL,403
403262,King River (Mainstream)@ Oxley,NULL,NULL,NULL,NULL,55,443895.000,5966164.000,AMG66VIC,-36.448124640,146.373936400,NULL,9,166.000,9,N,N,1,2019-04-01,NULL,403
403263,King River (Anabranch) @ Oxley,NULL,NULL,NULL,NULL,55,443877.000,5966260.000,AMG66VIC,-36.447258180,146.373742500,NULL,9,159.000,9,N,N,1,2019-04-01,NULL,403
403601,MULLINMUR BILLABONG @ WANGARATTA,MULLINMUR BILLABONG,NULL,NULL,NULL,55,438202.739,5978817.746,MGA,-36.333579000,146.311432000,GDA94,9,.000,NOT,N,N,1,2022-03-04,NULL,403
403803,RAIN GAUGE (BLACK RANGE CK) @ TROUT FARM,R.G. BLACK RANGE CK,.000,NULL,.00000,55,458536.017,5932991.048,UTM,-36.747788000,146.535520000,WGS84,9,440.000,0,Y,N,1,2000-07-18,NULL,403
403804,RAIN GAUGE (UPPER BOGGY CK) @ MYRRHEE,R.G. UPPER BOGGY CK,.000,NULL,.00000,55,441051.000,5933805.000,UTM,-36.739516020,146.339692000,WGS84,9,356.000,0,Y,N,1,2000-07-13,NULL,403
403805,RAIN GAUGE (UPPER 15 MILE CK) @ HANDCOCKS,R.G. UPP. 15 MILE CK,.000,NULL,.00000,55,435737.000,5928213.000,UTM,-36.789586650,146.279737500,WGS84,9,.000,0,Y,N,1,2000-07-13,NULL,403
404203,BROKEN RIVER @ BENALLA,BROKEN @ BENALLA,164.859,AHD,1461.00000,55,408697.000,5954320.000,UTM,-36.552087500,145.979853600,WGS84,9,68.000,1,n,N,1,1955-05-01,NULL,404
404204,BOOSEY CREEK @ TUNGAMAH,BOOSEY @ TUNGAMAH,119.961,AHD,845.00000,55,394885.000,6001678.000,UTM,-36.123769020,145.831910540,WGS84,9,131.000,1,Y,N,1,1917-11-27,NULL,404
404207,HOLLAND CREEK @ KELFEERA,HOLLAND @ KELFEERA,180.094,AHD,451.00000,55,415870.000,5947834.000,UTM,-36.611155140,146.059204700,WGS84,9,.000,1,Y,Y,1,1960-05-09,NULL,404
404208,MOONEE CREEK @ LIMA,MOONEE @ LIMA,.000,ARB,91.00000,55,408235.810,5931026.741,MGA94,-36.761960000,145.971880000,WGS84,9,210.000,9,Y,N,1,1963-01-25,NULL,404
404210,BROKEN CREEK @ RICES WEIR,RICES WEIR SCADA,.000,NULL,3033.00000,55,316223.433,6017690.049,ANG,-35.967790000,144.961900000,WGS84,1,.000,1,Y,Y,1,1965-02-04,NULL,404
404214,BROKEN CREEK @ KATAMATITE,BROKEN @ KATAMATITE,112.864,AHD,270.00000,55,381635.000,6004300.000,UTM,-36.098538410,145.685153800,WGS84,9,.000,1,Y,Y,1,1966-07-22,NULL,404
404216,BROKEN RIVER @ GOORAMBAT (CASEY WEIR H. GAUGE),BROKEN @ CASEY WEIR,156.914,AHD,1924.00000,55,405193.000,5962993.000,UTM,-36.473534880,145.941739300,WGS84,9,.000,1,Y,Y,1,1888-02-07,NULL,404
404217,BROKEN CREEK (CHANNEL) @ CASEY WEIR (NEAR GOORAMBAT),BROKEN @ CASEY WEIR,156.289,AHD,.00000,55,405165.706,5963036.509,UTM,-36.473140000,145.941440000,WGS84,9,.000,1,Y,N,1,1885-01-01,NULL,404
